[
  { "iata": "ICN", "nameKo": "인천국제공항", "nameEn": "Incheon Int'l Airport", "cityKo": "인천/서울", "cityEn": "Incheon/Seoul", "country": "KR", "latitude": 37.4602, "longitude": 126.4407 },
  { "iata": "GMP", "nameKo": "김포국제공항", "nameEn": "Gimpo Int'l Airport", "cityKo": "서울", "cityEn": "Seoul", "country": "KR", "latitude": 37.5584, "longitude": 126.7906 },
  { "iata": "PUS", "nameKo": "김해국제공항", "nameEn": "Gimhae Int'l Airport", "cityKo": "부산", "cityEn": "Busan", "country": "KR", "latitude": 35.1795, "longitude": 128.9382 },
  { "iata": "CJU", "nameKo": "제주국제공항", "nameEn": "Jeju Int'l Airport", "cityKo": "제주", "cityEn": "Jeju", "country": "KR", "latitude": 33.5104, "longitude": 126.4913 },
  { "iata": "YNY", "nameKo": "양양국제공항", "nameEn": "Yangyang Int'l Airport", "cityKo": "양양", "cityEn": "Yangyang", "country": "KR", "latitude": 38.0613, "longitude": 128.6657 },
  { "iata": "USN", "nameKo": "울산공항", "nameEn": "Ulsan Airport", "cityKo": "울산", "cityEn": "Ulsan", "country": "KR", "latitude": 35.5936, "longitude": 129.3517 },
  { "iata": "TAE", "nameKo": "대구국제공항", "nameEn": "Daegu Int'l Airport", "cityKo": "대구", "cityEn": "Daegu", "country": "KR", "latitude": 35.8939, "longitude": 128.6589 },
  { "iata": "CJJ", "nameKo": "청주국제공항", "nameEn": "Cheongju Int'l Airport", "cityKo": "청주", "cityEn": "Cheongju", "country": "KR", "latitude": 36.7166, "longitude": 127.4997 },
  { "iata": "MWX", "nameKo": "무안국제공항", "nameEn": "Muan Int'l Airport", "cityKo": "무안/광주", "cityEn": "Muan/Gwangju", "country": "KR", "latitude": 34.9914, "longitude": 126.3828 },
  { "iata": "KUV", "nameKo": "군산공항", "nameEn": "Gunsan Airport", "cityKo": "군산", "cityEn": "Gunsan", "country": "KR", "latitude": 35.9038, "longitude": 126.6158 },
  { "iata": "RSU", "nameKo": "여수공항", "nameEn": "Yeosu Airport", "cityKo": "여수", "cityEn": "Yeosu", "country": "KR", "latitude": 34.8423, "longitude": 127.6172 },
  { "iata": "HIN", "nameKo": "사천공항", "nameEn": "Sacheon Airport", "cityKo": "사천/진주", "cityEn": "Sacheon/Jinju", "country": "KR", "latitude": 35.0885, "longitude": 128.0702 },
  { "iata": "KPO", "nameKo": "포항경주공항", "nameEn": "Pohang Gyeongju Airport", "cityKo": "포항", "cityEn": "Pohang", "country": "KR", "latitude": 35.9877, "longitude": 129.4205 },
  { "iata": "FUK", "nameKo": "후쿠오카 공항", "nameEn": "Fukuoka Airport", "cityKo": "후쿠오카", "cityEn": "Fukuoka", "country": "JP", "latitude": 33.5859, "longitude": 130.4507 },
  { "iata": "KIX", "nameKo": "간사이 국제공항", "nameEn": "Kansai Int'l Airport", "cityKo": "오사카", "cityEn": "Osaka", "country": "JP", "latitude": 34.4320, "longitude": 135.2304 },
  { "iata": "NRT", "nameKo": "나리타 국제공항", "nameEn": "Narita Int'l Airport", "cityKo": "도쿄", "cityEn": "Tokyo", "country": "JP", "latitude": 35.7720, "longitude": 140.3929 },
  { "iata": "HND", "nameKo": "하네다 공항", "nameEn": "Haneda Airport", "cityKo": "도쿄", "cityEn": "Tokyo", "country": "JP", "latitude": 35.5494, "longitude": 139.7798 },
  { "iata": "CTS", "nameKo": "신치토세 공항", "nameEn": "New Chitose Airport", "cityKo": "삿포로", "cityEn": "Sapporo", "country": "JP", "latitude": 42.7752, "longitude": 141.6923 },
  { "iata": "OKA", "nameKo": "나하 공항", "nameEn": "Naha Airport", "cityKo": "오키나와", "cityEn": "Okinawa", "country": "JP", "latitude": 26.1958, "longitude": 127.6459 },
  { "iata": "NGO", "nameKo": "주부 센트레아 공항", "nameEn": "Chubu Centrair", "cityKo": "나고야", "cityEn": "Nagoya", "country": "JP", "latitude": 34.8584, "longitude": 136.8054 },
  { "iata": "SDJ", "nameKo": "센다이 공항", "nameEn": "Sendai Airport", "cityKo": "센다이", "cityEn": "Sendai", "country": "JP", "latitude": 38.1397, "longitude": 140.9169 },
  { "iata": "HIJ", "nameKo": "히로시마 공항", "nameEn": "Hiroshima Airport", "cityKo": "히로시마", "cityEn": "Hiroshima", "country": "JP", "latitude": 34.4361, "longitude": 132.9194 },
  { "iata": "KOJ", "nameKo": "가고시마 공항", "nameEn": "Kagoshima Airport", "cityKo": "가고시마", "cityEn": "Kagoshima", "country": "JP", "latitude": 31.7234, "longitude": 130.7193 },
  { "iata": "OKJ", "nameKo": "오카야마 공항", "nameEn": "Okayama Airport", "cityKo": "오카야마", "cityEn": "Okayama", "country": "JP", "latitude": 34.7567, "longitude": 133.8554 },
  { "iata": "PVG", "nameKo": "푸동 국제공항", "nameEn": "Pudong Int'l Airport", "cityKo": "상하이", "cityEn": "Shanghai", "country": "CN", "latitude": 31.1443, "longitude": 121.8083 },
  { "iata": "PEK", "nameKo": "서우두 국제공항", "nameEn": "Beijing Capital Int'l", "cityKo": "베이징", "cityEn": "Beijing", "country": "CN", "latitude": 40.0799, "longitude": 116.6031 },
  { "iata": "CAN", "nameKo": "바이윈 국제공항", "nameEn": "Guangzhou Baiyun", "cityKo": "광저우", "cityEn": "Guangzhou", "country": "CN", "latitude": 23.3924, "longitude": 113.2988 },
  { "iata": "SZX", "nameKo": "바오안 국제공항", "nameEn": "Shenzhen Bao'an", "cityKo": "선전", "cityEn": "Shenzhen", "country": "CN", "latitude": 22.6393, "longitude": 113.8107 },
  { "iata": "KMG", "nameKo": "창수이 국제공항", "nameEn": "Kunming Changshui", "cityKo": "쿤밍", "cityEn": "Kunming", "country": "CN", "latitude": 25.1018, "longitude": 102.9292 },
  { "iata": "CTU", "nameKo": "솽류 국제공항", "nameEn": "Chengdu Shuangliu", "cityKo": "청두", "cityEn": "Chengdu", "country": "CN", "latitude": 30.5785, "longitude": 103.9471 },
  { "iata": "TPE", "nameKo": "타오위안 국제공항", "nameEn": "Taoyuan Int'l Airport", "cityKo": "타이베이", "cityEn": "Taipei", "country": "TW", "latitude": 25.0797, "longitude": 121.2342 },
  { "iata": "VVO", "nameKo": "블라디보스토크 공항", "nameEn": "Vladivostok Int'l", "cityKo": "블라디보스토크", "cityEn": "Vladivostok", "country": "RU", "latitude": 43.3967, "longitude": 132.1480 },
  { "iata": "HKG", "nameKo": "홍콩 국제공항", "nameEn": "Hong Kong Int'l", "cityKo": "홍콩", "cityEn": "Hong Kong", "country": "HK", "latitude": 22.3080, "longitude": 113.9185 },
  { "iata": "BKK", "nameKo": "수완나품 공항", "nameEn": "Suvarnabhumi Airport", "cityKo": "방콕", "cityEn": "Bangkok", "country": "TH", "latitude": 13.6900, "longitude": 100.7501 },
  { "iata": "HKT", "nameKo": "푸켓 국제공항", "nameEn": "Phuket Int'l Airport", "cityKo": "푸켓", "cityEn": "Phuket", "country": "TH", "latitude": 8.1132, "longitude": 98.3169 },
  { "iata": "CNX", "nameKo": "치앙마이 국제공항", "nameEn": "Chiang Mai Int'l", "cityKo": "치앙마이", "cityEn": "Chiang Mai", "country": "TH", "latitude": 18.7758, "longitude": 98.9675 },
  { "iata": "SIN", "nameKo": "창이 공항", "nameEn": "Changi Airport", "cityKo": "싱가포르", "cityEn": "Singapore", "country": "SG", "latitude": 1.3644, "longitude": 103.9915 },
  { "iata": "HAN", "nameKo": "노이바이 국제공항", "nameEn": "Noi Bai Int'l Airport", "cityKo": "하노이", "cityEn": "Hanoi", "country": "VN", "latitude": 21.2187, "longitude": 105.8042 },
  { "iata": "SGN", "nameKo": "떤선녓 국제공항", "nameEn": "Tan Son Nhat Int'l", "cityKo": "호치민", "cityEn": "Ho Chi Minh City", "country": "VN", "latitude": 10.8185, "longitude": 106.6588 },
  { "iata": "DAD", "nameKo": "다낭 국제공항", "nameEn": "Da Nang Int'l Airport", "cityKo": "다낭", "cityEn": "Da Nang", "country": "VN", "latitude": 16.0439, "longitude": 108.1994 },
  { "iata": "MNL", "nameKo": "니노이 아키노 공항", "nameEn": "Ninoy Aquino Int'l", "cityKo": "마닐라", "cityEn": "Manila", "country": "PH", "latitude": 14.5086, "longitude": 121.0194 },
  { "iata": "CEB", "nameKo": "막탄 세부 국제공항", "nameEn": "Mactan-Cebu Int'l", "cityKo": "세부", "cityEn": "Cebu", "country": "PH", "latitude": 10.3075, "longitude": 123.9794 },
  { "iata": "KUL", "nameKo": "쿠알라룸푸르 공항", "nameEn": "Kuala Lumpur Int'l", "cityKo": "쿠알라룸푸르", "cityEn": "Kuala Lumpur", "country": "MY", "latitude": 2.7456, "longitude": 101.7072 },
  { "iata": "CGK", "nameKo": "수카르노 하타 공항", "nameEn": "Soekarno-Hatta Int'l", "cityKo": "자카르타", "cityEn": "Jakarta", "country": "ID", "latitude": -6.1275, "longitude": 106.6537 },
  { "iata": "DPS", "nameKo": "응우라라이 국제공항", "nameEn": "Ngurah Rai Int'l", "cityKo": "발리", "cityEn": "Bali", "country": "ID", "latitude": -8.7481, "longitude": 115.1674 },
  { "iata": "DEL", "nameKo": "인디라 간디 국제공항", "nameEn": "Indira Gandhi Int'l", "cityKo": "뉴델리", "cityEn": "New Delhi", "country": "IN", "latitude": 28.5562, "longitude": 77.1000 },
  { "iata": "BOM", "nameKo": "차트라파티 시바지 공항", "nameEn": "Chhatrapati Shivaji", "cityKo": "뭄바이", "cityEn": "Mumbai", "country": "IN", "latitude": 19.0896, "longitude": 72.8656 },
  { "iata": "MLE", "nameKo": "벨라나 국제공항", "nameEn": "Velana Int'l Airport", "cityKo": "말레", "cityEn": "Male", "country": "MV", "latitude": 4.1918, "longitude": 73.5291 },
  { "iata": "KTM", "nameKo": "트리부반 국제공항", "nameEn": "Tribhuvan Int'l", "cityKo": "카트만두", "cityEn": "Kathmandu", "country": "NP", "latitude": 27.6966, "longitude": 85.3591 },
  { "iata": "SYD", "nameKo": "시드니 공항", "nameEn": "Sydney Airport", "cityKo": "시드니", "cityEn": "Sydney", "country": "AU", "latitude": -33.9399, "longitude": 151.1753 },
  { "iata": "MEL", "nameKo": "멜버른 공항", "nameEn": "Melbourne Airport", "cityKo": "멜버른", "cityEn": "Melbourne", "country": "AU", "latitude": -37.6690, "longitude": 144.8410 },
  { "iata": "BNE", "nameKo": "브리즈번 공항", "nameEn": "Brisbane Airport", "cityKo": "브리즈번", "cityEn": "Brisbane", "country": "AU", "latitude": -27.3842, "longitude": 153.1175 },
  { "iata": "PER", "nameKo": "퍼스 공항", "nameEn": "Perth Airport", "cityKo": "퍼스", "cityEn": "Perth", "country": "AU", "latitude": -31.9403, "longitude": 115.9669 },
  { "iata": "AKL", "nameKo": "오클랜드 공항", "nameEn": "Auckland Airport", "cityKo": "오클랜드", "cityEn": "Auckland", "country": "NZ", "latitude": -37.0082, "longitude": 174.7850 },
  { "iata": "GUM", "nameKo": "안토니오 B. 원 팻 공항", "nameEn": "Antonio B. Won Pat", "cityKo": "괌", "cityEn": "Guam", "country": "GU", "latitude": 13.4840, "longitude": 144.7960 },
  { "iata": "NAN", "nameKo": "나디 국제공항", "nameEn": "Nadi Int'l Airport", "cityKo": "나디", "cityEn": "Nadi", "country": "FJ", "latitude": -17.7554, "longitude": 177.4433 },
  { "iata": "HNL", "nameKo": "다니엘 K. 이노우에 공항", "nameEn": "Daniel K. Inouye Int'l", "cityKo": "호놀룰루", "cityEn": "Honolulu", "country": "US", "latitude": 21.3187, "longitude": -157.9225 },
  { "iata": "JFK", "nameKo": "존 F. 케네디 공항", "nameEn": "John F. Kennedy Int'l", "cityKo": "뉴욕", "cityEn": "New York", "country": "US", "latitude": 40.6413, "longitude": -73.7781 },
  { "iata": "EWR", "nameKo": "뉴어크 리버티 공항", "nameEn": "Newark Liberty Int'l", "cityKo": "뉴욕/뉴어크", "cityEn": "New York/Newark", "country": "US", "latitude": 40.6895, "longitude": -74.1745 },
  { "iata": "LAX", "nameKo": "로스앤젤레스 공항", "nameEn": "Los Angeles Int'l", "cityKo": "로스앤젤레스", "cityEn": "Los Angeles", "country": "US", "latitude": 33.9416, "longitude": -118.4085 },
  { "iata": "SFO", "nameKo": "샌프란시스코 공항", "nameEn": "San Francisco Int'l", "cityKo": "샌프란시스코", "cityEn": "San Francisco", "country": "US", "latitude": 37.6213, "longitude": -122.3790 },
  { "iata": "ORD", "nameKo": "오헤어 국제공항", "nameEn": "O'Hare Int'l Airport", "cityKo": "시카고", "cityEn": "Chicago", "country": "US", "latitude": 41.9742, "longitude": -87.9073 },
  { "iata": "ATL", "nameKo": "하츠필드 잭슨 공항", "nameEn": "Hartsfield-Jackson", "cityKo": "애틀랜타", "cityEn": "Atlanta", "country": "US", "latitude": 33.6407, "longitude": -84.4277 },
  { "iata": "DFW", "nameKo": "댈러스 포트워스 공항", "nameEn": "Dallas/Fort Worth", "cityKo": "댈러스", "cityEn": "Dallas", "country": "US", "latitude": 32.8998, "longitude": -97.0403 },
  { "iata": "DEN", "nameKo": "덴버 국제공항", "nameEn": "Denver Int'l Airport", "cityKo": "덴버", "cityEn": "Denver", "country": "US", "latitude": 39.8561, "longitude": -104.6737 },
  { "iata": "SEA", "nameKo": "시애틀 터코마 공항", "nameEn": "Seattle-Tacoma", "cityKo": "시애틀", "cityEn": "Seattle", "country": "US", "latitude": 47.4502, "longitude": -122.3088 },
  { "iata": "LAS", "nameKo": "해리 리드 국제공항", "nameEn": "Harry Reid Int'l", "cityKo": "라스베이거스", "cityEn": "Las Vegas", "country": "US", "latitude": 36.0840, "longitude": -115.1537 },
  { "iata": "MIA", "nameKo": "마이애미 국제공항", "nameEn": "Miami Int'l Airport", "cityKo": "마이애미", "cityEn": "Miami", "country": "US", "latitude": 25.7959, "longitude": -80.2870 },
  { "iata": "BOS", "nameKo": "로건 국제공항", "nameEn": "Logan Int'l Airport", "cityKo": "보스턴", "cityEn": "Boston", "country": "US", "latitude": 42.3656, "longitude": -71.0096 },
  { "iata": "IAD", "nameKo": "덜레스 국제공항", "nameEn": "Washington Dulles", "cityKo": "워싱턴 D.C.", "cityEn": "Washington D.C.", "country": "US", "latitude": 38.9531, "longitude": -77.4565 },
  { "iata": "PHX", "nameKo": "스카이 하버 공항", "nameEn": "Phoenix Sky Harbor", "cityKo": "피닉스", "cityEn": "Phoenix", "country": "US", "latitude": 33.4342, "longitude": -112.0081 },
  { "iata": "IAH", "nameKo": "조지 부시 공항", "nameEn": "George Bush Int'l", "cityKo": "휴스턴", "cityEn": "Houston", "country": "US", "latitude": 29.9902, "longitude": -95.3368 },
  { "iata": "SAN", "nameKo": "샌디에이고 공항", "nameEn": "San Diego Int'l", "cityKo": "샌디에이고", "cityEn": "San Diego", "country": "US", "latitude": 32.7338, "longitude": -117.1933 },
  { "iata": "SJC", "nameKo": "미네타 산호세 공항", "nameEn": "San Jose Int'l", "cityKo": "산호세", "cityEn": "San Jose", "country": "US", "latitude": 37.3619, "longitude": -121.9292 },
  { "iata": "SNA", "nameKo": "존 웨인 공항", "nameEn": "John Wayne Airport", "cityKo": "오렌지 카운티", "cityEn": "Orange County", "country": "US", "latitude": 33.6757, "longitude": -117.8675 },
  { "iata": "SLC", "nameKo": "솔트레이크시티 공항", "nameEn": "Salt Lake City Int'l", "cityKo": "솔트레이크시티", "cityEn": "Salt Lake City", "country": "US", "latitude": 40.7884, "longitude": -111.9778 },
  { "iata": "DCA", "nameKo": "로널드 레이건 공항", "nameEn": "Reagan National", "cityKo": "워싱턴 D.C.", "cityEn": "Washington D.C.", "country": "US", "latitude": 38.8512, "longitude": -77.0402 },
  { "iata": "YYZ", "nameKo": "피어슨 국제공항", "nameEn": "Toronto Pearson Int'l", "cityKo": "토론토", "cityEn": "Toronto", "country": "CA", "latitude": 43.6777, "longitude": -79.6248 },
  { "iata": "YVR", "nameKo": "밴쿠버 국제공항", "nameEn": "Vancouver Int'l", "cityKo": "밴쿠버", "cityEn": "Vancouver", "country": "CA", "latitude": 49.1947, "longitude": -123.1792 },
  { "iata": "YYC", "nameKo": "캘거리 국제공항", "nameEn": "Calgary Int'l Airport", "cityKo": "캘거리", "cityEn": "Calgary", "country": "CA", "latitude": 51.1139, "longitude": -114.0203 },
  { "iata": "MEX", "nameKo": "멕시코시티 공항", "nameEn": "Benito Juárez Int'l", "cityKo": "멕시코시티", "cityEn": "Mexico City", "country": "MX", "latitude": 19.4361, "longitude": -99.0719 },
  { "iata": "CUN", "nameKo": "칸쿤 국제공항", "nameEn": "Cancún Int'l Airport", "cityKo": "칸쿤", "cityEn": "Cancun", "country": "MX", "latitude": 21.0365, "longitude": -86.8771 },
  { "iata": "GRU", "nameKo": "과룰류스 국제공항", "nameEn": "São Paulo/Guarulhos", "cityKo": "상파울루", "cityEn": "Sao Paulo", "country": "BR", "latitude": -23.4356, "longitude": -46.4731 },
  { "iata": "GIG", "nameKo": "갈레앙 국제공항", "nameEn": "Rio de Janeiro/Galeão", "cityKo": "리우데자네이루", "cityEn": "Rio de Janeiro", "country": "BR", "latitude": -22.8100, "longitude": -43.2505 },
  { "iata": "LIM", "nameKo": "호르헤 차베스 공항", "nameEn": "Jorge Chávez Int'l", "cityKo": "리마", "cityEn": "Lima", "country": "PE", "latitude": -12.0241, "longitude": -77.1120 },
  { "iata": "BOG", "nameKo": "엘도라도 국제공항", "nameEn": "El Dorado Int'l", "cityKo": "보고타", "cityEn": "Bogota", "country": "CO", "latitude": 4.7016, "longitude": -74.1469 },
  { "iata": "SCL", "nameKo": "아투로 메리노 베니테스", "nameEn": "Arturo Merino Benítez", "cityKo": "산티아고", "cityEn": "Santiago", "country": "CL", "latitude": -33.3930, "longitude": -70.7858 },
  { "iata": "EZE", "nameKo": "에세이사 국제공항", "nameEn": "Ezeiza Int'l Airport", "cityKo": "부에노스아이레스", "cityEn": "Buenos Aires", "country": "AR", "latitude": -34.8222, "longitude": -58.5358 },
  { "iata": "MVD", "nameKo": "카라스코 국제공항", "nameEn": "Carrasco Int'l Airport", "cityKo": "몬테비데오", "cityEn": "Montevideo", "country": "UY", "latitude": -34.8384, "longitude": -56.0308 },
  { "iata": "LHR", "nameKo": "히드로 공항", "nameEn": "Heathrow Airport", "cityKo": "런던", "cityEn": "London", "country": "GB", "latitude": 51.4700, "longitude": -0.4543 },
  { "iata": "LGW", "nameKo": "개트윅 공항", "nameEn": "Gatwick Airport", "cityKo": "런던", "cityEn": "London", "country": "GB", "latitude": 51.1481, "longitude": -0.1903 },
  { "iata": "STN", "nameKo": "스탠스테드 공항", "nameEn": "Stansted Airport", "cityKo": "런던", "cityEn": "London", "country": "GB", "latitude": 51.8850, "longitude": 0.2350 },
  { "iata": "CDG", "nameKo": "샤를 드 골 공항", "nameEn": "Charles de Gaulle", "cityKo": "파리", "cityEn": "Paris", "country": "FR", "latitude": 49.0097, "longitude": 2.5479 },
  { "iata": "ORY", "nameKo": "오를리 공항", "nameEn": "Orly Airport", "cityKo": "파리", "cityEn": "Paris", "country": "FR", "latitude": 48.7262, "longitude": 2.3652 },
  { "iata": "FRA", "nameKo": "프랑크푸르트 공항", "nameEn": "Frankfurt Airport", "cityKo": "프랑크푸르트", "cityEn": "Frankfurt", "country": "DE", "latitude": 50.0379, "longitude": 8.5622 },
  { "iata": "MUC", "nameKo": "뮌헨 국제공항", "nameEn": "Munich Airport", "cityKo": "뮌헨", "cityEn": "Munich", "country": "DE", "latitude": 48.3536, "longitude": 11.7750 },
  { "iata": "BER", "nameKo": "베를린 브란덴부르크", "nameEn": "Berlin Brandenburg", "cityKo": "베를린", "cityEn": "Berlin", "country": "DE", "latitude": 52.3667, "longitude": 13.5033 },
  { "iata": "HAM", "nameKo": "함부르크 공항", "nameEn": "Hamburg Airport", "cityKo": "함부르크", "cityEn": "Hamburg", "country": "DE", "latitude": 53.6304, "longitude": 9.9882 },
  { "iata": "DUS", "nameKo": "뒤셀도르프 공항", "nameEn": "Düsseldorf Airport", "cityKo": "뒤셀도르프", "cityEn": "Dusseldorf", "country": "DE", "latitude": 51.2895, "longitude": 6.7668 },
  { "iata": "AMS", "nameKo": "스키폴 공항", "nameEn": "Amsterdam Airport Schiphol", "cityKo": "암스테르담", "cityEn": "Amsterdam", "country": "NL", "latitude": 52.3105, "longitude": 4.7683 },
  { "iata": "MAD", "nameKo": "바라하스 공항", "nameEn": "Adolfo Suárez Madrid-Barajas", "cityKo": "마드리드", "cityEn": "Madrid", "country": "ES", "latitude": 40.4839, "longitude": -3.5680 },
  { "iata": "BCN", "nameKo": "엘 프라트 공항", "nameEn": "Barcelona-El Prat", "cityKo": "바르셀로나", "cityEn": "Barcelona", "country": "ES", "latitude": 41.2974, "longitude": 2.0833 },
  { "iata": "AGP", "nameKo": "말라가 공항", "nameEn": "Málaga Airport", "cityKo": "말라가", "cityEn": "Malaga", "country": "ES", "latitude": 36.6749, "longitude": -4.4991 },
  { "iata": "VLC", "nameKo": "발렌시아 공항", "nameEn": "Valencia Airport", "cityKo": "발렌시아", "cityEn": "Valencia", "country": "ES", "latitude": 39.4893, "longitude": -0.4816 },
  { "iata": "FCO", "nameKo": "레오나르도 다 빈치 공항", "nameEn": "Fiumicino Airport", "cityKo": "로마", "cityEn": "Rome", "country": "IT", "latitude": 41.8003, "longitude": 12.2389 },
  { "iata": "MXP", "nameKo": "말펜사 공항", "nameEn": "Malpensa Airport", "cityKo": "밀라노", "cityEn": "Milan", "country": "IT", "latitude": 45.6301, "longitude": 8.7255 },
  { "iata": "LIN", "nameKo": "리나테 공항", "nameEn": "Linate Airport", "cityKo": "밀라노", "cityEn": "Milan", "country": "IT", "latitude": 45.4451, "longitude": 9.2767 },
  { "iata": "VCE", "nameKo": "마르코 폴로 공항", "nameEn": "Venice Marco Polo", "cityKo": "베네치아", "cityEn": "Venice", "country": "IT", "latitude": 45.5053, "longitude": 12.3519 },
  { "iata": "NAP", "nameKo": "나폴리 국제공항", "nameEn": "Naples Int'l Airport", "cityKo": "나폴리", "cityEn": "Naples", "country": "IT", "latitude": 40.8860, "longitude": 14.2908 },
  { "iata": "ZRH", "nameKo": "취리히 공항", "nameEn": "Zurich Airport", "cityKo": "취리히", "cityEn": "Zurich", "country": "CH", "latitude": 47.4582, "longitude": 8.5555 },
  { "iata": "GVA", "nameKo": "제네바 공항", "nameEn": "Geneva Airport", "cityKo": "제네바", "cityEn": "Geneva", "country": "CH", "latitude": 46.2381, "longitude": 6.1089 },
  { "iata": "VIE", "nameKo": "빈 국제공항", "nameEn": "Vienna Int'l Airport", "cityKo": "빈", "cityEn": "Vienna", "country": "AT", "latitude": 48.1103, "longitude": 16.5666 },
  { "iata": "PRG", "nameKo": "바츨라프 하벨 공항", "nameEn": "Václav Havel Airport", "cityKo": "프라하", "cityEn": "Prague", "country": "CZ", "latitude": 50.1008, "longitude": 14.2600 },
  { "iata": "BUD", "nameKo": "리스트 페렌츠 공항", "nameEn": "Liszt Ferenc Int'l", "cityKo": "부다페스트", "cityEn": "Budapest", "country": "HU", "latitude": 47.4369, "longitude": 19.2556 },
  { "iata": "IST", "nameKo": "이스탄불 공항", "nameEn": "Istanbul Airport", "cityKo": "이스탄불", "cityEn": "Istanbul", "country": "TR", "latitude": 41.2753, "longitude": 28.7519 },
  { "iata": "ATH", "nameKo": "아테네 국제공항", "nameEn": "Athens Int'l Airport", "cityKo": "아테네", "cityEn": "Athens", "country": "GR", "latitude": 37.9356, "longitude": 23.9484 },
  { "iata": "CPH", "nameKo": "코펜하겐 공항", "nameEn": "Copenhagen Airport", "cityKo": "코펜하겐", "cityEn": "Copenhagen", "country": "DK", "latitude": 55.6180, "longitude": 12.6508 },
  { "iata": "ARN", "nameKo": "알란다 공항", "nameEn": "Stockholm Arlanda", "cityKo": "스톡홀름", "cityEn": "Stockholm", "country": "SE", "latitude": 59.6498, "longitude": 17.9238 },
  { "iata": "OSL", "nameKo": "가르데르모엔 공항", "nameEn": "Oslo Airport", "cityKo": "오슬로", "cityEn": "Oslo", "country": "NO", "latitude": 60.1975, "longitude": 11.1004 },
  { "iata": "HEL", "nameKo": "헬싱키 반타 공항", "nameEn": "Helsinki-Vantaa", "cityKo": "헬싱키", "cityEn": "Helsinki", "country": "FI", "latitude": 60.3210, "longitude": 24.9529 },
  { "iata": "KEF", "nameKo": "케플라비크 공항", "nameEn": "Keflavík Int'l Airport", "cityKo": "레이캬비크", "cityEn": "Reykjavik", "country": "IS", "latitude": 63.9850, "longitude": -22.6056 },
  { "iata": "DUB", "nameKo": "더블린 공항", "nameEn": "Dublin Airport", "cityKo": "더블린", "cityEn": "Dublin", "country": "IE", "latitude": 53.4264, "longitude": -6.2499 },
  { "iata": "LIS", "nameKo": "리스본 공항", "nameEn": "Lisbon Portela Airport", "cityKo": "리스본", "cityEn": "Lisbon", "country": "PT", "latitude": 38.7742, "longitude": -9.1342 },
  { "iata": "OPO", "nameKo": "프란시스쿠 사 카르네이루", "nameEn": "Francisco Sá Carneiro", "cityKo": "포르투", "cityEn": "Porto", "country": "PT", "latitude": 41.2421, "longitude": -8.6786 },
  { "iata": "BRU", "nameKo": "브뤼셀 공항", "nameEn": "Brussels Airport", "cityKo": "브뤼셀", "cityEn": "Brussels", "country": "BE", "latitude": 50.9010, "longitude": 4.4844 },
  { "iata": "WAW", "nameKo": "쇼팽 공항", "nameEn": "Warsaw Chopin Airport", "cityKo": "바르샤바", "cityEn": "Warsaw", "country": "PL", "latitude": 52.1657, "longitude": 20.9671 },
  { "iata": "DXB", "nameKo": "두바이 국제공항", "nameEn": "Dubai Int'l Airport", "cityKo": "두바이", "cityEn": "Dubai", "country": "AE", "latitude": 25.2532, "longitude": 55.3657 },
  { "iata": "AUH", "nameKo": "자이드 국제공항", "nameEn": "Zayed Int'l Airport", "cityKo": "아부다비", "cityEn": "Abu Dhabi", "country": "AE", "latitude": 24.4330, "longitude": 54.6511 },
  { "iata": "DOH", "nameKo": "하마드 국제공항", "nameEn": "Hamad Int'l Airport", "cityKo": "도하", "cityEn": "Doha", "country": "QA", "latitude": 25.2731, "longitude": 51.6081 },
  { "iata": "RUH", "nameKo": "킹 할리드 공항", "nameEn": "King Khalid Int'l", "cityKo": "리야드", "cityEn": "Riyadh", "country": "SA", "latitude": 24.9576, "longitude": 46.6988 },
  { "iata": "JED", "nameKo": "킹 압둘아지즈 공항", "nameEn": "King Abdulaziz Int'l", "cityKo": "제다", "cityEn": "Jeddah", "country": "SA", "latitude": 21.6796, "longitude": 39.1565 },
  { "iata": "MCT", "nameKo": "무스카트 국제공항", "nameEn": "Muscat Int'l Airport", "cityKo": "무스카트", "cityEn": "Muscat", "country": "OM", "latitude": 23.5933, "longitude": 58.2844 },
  { "iata": "CAI", "nameKo": "카이로 국제공항", "nameEn": "Cairo Int'l Airport", "cityKo": "카이로", "cityEn": "Cairo", "country": "EG", "latitude": 30.1132, "longitude": 31.4087 },
  { "iata": "JNB", "nameKo": "O.R. 탐보 국제공항", "nameEn": "O.R. Tambo Int'l", "cityKo": "요하네스버그", "cityEn": "Johannesburg", "country": "ZA", "latitude": -26.1367, "longitude": 28.2411 },
  { "iata": "CPT", "nameKo": "케이프타운 국제공항", "nameEn": "Cape Town Int'l", "cityKo": "케이프타운", "cityEn": "Cape Town", "country": "ZA", "latitude": -33.9715, "longitude": 18.6021 },
  { "iata": "NBO", "nameKo": "조모 케냐타 공항", "nameEn": "Jomo Kenyatta Int'l", "cityKo": "나이로비", "cityEn": "Nairobi", "country": "KE", "latitude": -1.3192, "longitude": 36.9275 },
  { "iata": "ADD", "nameKo": "볼레 국제공항", "nameEn": "Addis Ababa Bole", "cityKo": "아디스아바바", "cityEn": "Addis Ababa", "country": "ET", "latitude": 8.9778, "longitude": 38.7993 },
  { "iata": "CMN", "nameKo": "모하메드 5세 공항", "nameEn": "Mohammed V Int'l", "cityKo": "카사블랑카", "cityEn": "Casablanca", "country": "MA", "latitude": 33.3675, "longitude": -7.5899 },
  { "iata": "MRU", "nameKo": "S.S. 람굴람 공항", "nameEn": "Sir Seewoosagur Ramgoolam", "cityKo": "모리셔스", "cityEn": "Mauritius", "country": "MU", "latitude": -20.4302, "longitude": 57.6836 },
  { "iata": "LGA", "nameKo": "라과디아 공항", "nameEn": "LaGuardia Airport", "cityKo": "뉴욕", "cityEn": "New York", "country": "US", "latitude": 40.7769, "longitude": -73.8740 },
  { "iata": "PDX", "nameKo": "포틀랜드 국제공항", "nameEn": "Portland Int'l Airport", "cityKo": "포틀랜드", "cityEn": "Portland", "country": "US", "latitude": 45.5898, "longitude": -122.5951 },
  { "iata": "AUS", "nameKo": "오스틴 버그스트롬 공항", "nameEn": "Austin-Bergstrom Int'l", "cityKo": "오스틴", "cityEn": "Austin", "country": "US", "latitude": 30.1945, "longitude": -97.6699 },
  { "iata": "BWI", "nameKo": "볼티모어 워싱턴 공항", "nameEn": "Baltimore/Washington Int'l", "cityKo": "볼티모어", "cityEn": "Baltimore", "country": "US", "latitude": 39.1774, "longitude": -76.6684 },
  { "iata": "MCO", "nameKo": "올랜도 국제공항", "nameEn": "Orlando Int'l Airport", "cityKo": "올랜도", "cityEn": "Orlando", "country": "US", "latitude": 28.4312, "longitude": -81.3081 },
  { "iata": "MSP", "nameKo": "미니애폴리스 세인트폴 공항", "nameEn": "Minneapolis-St. Paul Int'l", "cityKo": "미니애폴리스", "cityEn": "Minneapolis", "country": "US", "latitude": 44.8820, "longitude": -93.2218 },
  { "iata": "DTW", "nameKo": "디트로이트 메트로 공항", "nameEn": "Detroit Metro Airport", "cityKo": "디트로이트", "cityEn": "Detroit", "country": "US", "latitude": 42.2162, "longitude": -83.3554 },
  { "iata": "CLT", "nameKo": "샬럿 더글러스 공항", "nameEn": "Charlotte Douglas Int'l", "cityKo": "샬럿", "cityEn": "Charlotte", "country": "US", "latitude": 35.2144, "longitude": -80.9473 },
  { "iata": "PHL", "nameKo": "필라델피아 국제공항", "nameEn": "Philadelphia Int'l", "cityKo": "필라델피아", "cityEn": "Philadelphia", "country": "US", "latitude": 39.8744, "longitude": -75.2424 },
  { "iata": "YUL", "nameKo": "몬트리올 피에르 Elliott 트뤼도 공항", "nameEn": "Montréal-Pierre Elliott Trudeau", "cityKo": "몬트리올", "cityEn": "Montreal", "country": "CA", "latitude": 45.4657, "longitude": -73.7460 },
  { "iata": "YEG", "nameKo": "에드먼턴 국제공항", "nameEn": "Edmonton Int'l Airport", "cityKo": "에드먼턴", "cityEn": "Edmonton", "country": "CA", "latitude": 53.3097, "longitude": -113.5800 },
  { "iata": "YWG", "nameKo": "위니펙 제임스 암스트롱 리처드슨 공항", "nameEn": "Winnipeg James Armstrong Richardson", "cityKo": "위니펙", "cityEn": "Winnipeg", "country": "CA", "latitude": 49.9100, "longitude": -97.2399 },
  { "iata": "GDL", "nameKo": "과달라하라 공항", "nameEn": "Guadalajara Int'l Airport", "cityKo": "과달라하라", "cityEn": "Guadalajara", "country": "MX", "latitude": 20.5218, "longitude": -103.3106 },
  { "iata": "MTY", "nameKo": "몬테레이 국제공항", "nameEn": "Monterrey Int'l Airport", "cityKo": "몬테레이", "cityEn": "Monterrey", "country": "MX", "latitude": 25.7785, "longitude": -100.1069 },
  { "iata": "UIO", "nameKo": "마리스칼 수크레 국제공항", "nameEn": "Mariscal Sucre Int'l", "cityKo": "키토", "cityEn": "Quito", "country": "EC", "latitude": -0.1292, "longitude": -78.3575 },
  { "iata": "PTY", "nameKo": "토쿠멘 국제공항", "nameEn": "Tocumen Int'l Airport", "cityKo": "파나마시티", "cityEn": "Panama City", "country": "PA", "latitude": 9.0714, "longitude": -79.3835 },
  { "iata": "SJO", "nameKo": "후안 산타마리아 국제공항", "nameEn": "Juan Santamaría Int'l", "cityKo": "산호세", "cityEn": "San Jose", "country": "CR", "latitude": 9.9939, "longitude": -84.2089 },
  { "iata": "HAV", "nameKo": "호세 마르티 국제공항", "nameEn": "José Martí Int'l Airport", "cityKo": "아바나", "cityEn": "Havana", "country": "CU", "latitude": 22.9892, "longitude": -82.4091 },
  { "iata": "SJU", "nameKo": "루이스 무뇨스 마린 국제공항", "nameEn": "Luis Muñoz Marín Int'l", "cityKo": "산후안", "cityEn": "San Juan", "country": "PR", "latitude": 18.4394, "longitude": -66.0018 },
  { "iata": "LYS", "nameKo": "생텍쥐페리 공항", "nameEn": "Lyon-Saint Exupéry", "cityKo": "리옹", "cityEn": "Lyon", "country": "FR", "latitude": 45.7256, "longitude": 5.0811 },
  { "iata": "NCE", "nameKo": "니스 코트 다쥐르 공항", "nameEn": "Nice Côte d'Azur Airport", "cityKo": "니스", "cityEn": "Nice", "country": "FR", "latitude": 43.6584, "longitude": 7.2159 },
  { "iata": "MRS", "nameKo": "마르세유 프로방스 공항", "nameEn": "Marseille Provence Airport", "cityKo": "마르세유", "cityEn": "Marseille", "country": "FR", "latitude": 43.4393, "longitude": 5.2214 },
  { "iata": "TLS", "nameKo": "툴루즈 블라냑 공항", "nameEn": "Toulouse-Blagnac Airport", "cityKo": "툴루즈", "cityEn": "Toulouse", "country": "FR", "latitude": 43.6291, "longitude": 1.3638 },
  { "iata": "BOD", "nameKo": "보도 메리냑 공항", "nameEn": "Bordeaux-Mérignac Airport", "cityKo": "보르도", "cityEn": "Bordeaux", "country": "FR", "latitude": 44.8283, "longitude": -0.7156 },
  { "iata": "STR", "nameKo": "슈투트가르트 공항", "nameEn": "Stuttgart Airport", "cityKo": "슈투트가르트", "cityEn": "Stuttgart", "country": "DE", "latitude": 48.6899, "longitude": 9.2220 },
  { "iata": "CGN", "nameKo": "쾰른 본 공항", "nameEn": "Cologne Bonn Airport", "cityKo": "쾰른", "cityEn": "Cologne", "country": "DE", "latitude": 50.8659, "longitude": 7.1427 },
  { "iata": "NUE", "nameKo": "뉘른베르크 공항", "nameEn": "Nuremberg Airport", "cityKo": "뉘른베르크", "cityEn": "Nuremberg", "country": "DE", "latitude": 49.4987, "longitude": 11.0669 },
  { "iata": "LEJ", "nameKo": "라이프치히 할레 공항", "nameEn": "Leipzig/Halle Airport", "cityKo": "라이프치히", "cityEn": "Leipzig", "country": "DE", "latitude": 51.4324, "longitude": 12.2416 },
  { "iata": "DRS", "nameKo": "드레스덴 공항", "nameEn": "Dresden Airport", "cityKo": "드레스덴", "cityEn": "Dresden", "country": "DE", "latitude": 51.1328, "longitude": 13.7672 },
  { "iata": "HAJ", "nameKo": "하노버 공항", "nameEn": "Hannover Airport", "cityKo": "하노버", "cityEn": "Hannover", "country": "DE", "latitude": 52.4611, "longitude": 9.6851 },
  { "iata": "BRE", "nameKo": "브레멘 공항", "nameEn": "Bremen Airport", "cityKo": "브레멘", "cityEn": "Bremen", "country": "DE", "latitude": 53.0475, "longitude": 8.7867 },
  { "iata": "EAP", "nameKo": "바젤 뮐루즈 프라이부르크 공항", "nameEn": "EuroAirport Basel-Mulhouse-Freiburg", "cityKo": "바젤/뮐루즈", "cityEn": "Basel/Mulhouse", "country": "CH", "latitude": 47.5896, "longitude": 7.5299 },
  { "iata": "BSL", "nameKo": "바젤 공항", "nameEn": "Basel Airport", "cityKo": "바젤", "cityEn": "Basel", "country": "CH", "latitude": 47.5896, "longitude": 7.5299 },
  { "iata": "BRN", "nameKo": "베른 공항", "nameEn": "Bern Airport", "cityKo": "베른", "cityEn": "Bern", "country": "CH", "latitude": 46.9141, "longitude": 7.4975 },
  { "iata": "LTN", "nameKo": "런던 루턴 공항", "nameEn": "London Luton Airport", "cityKo": "런던", "cityEn": "London", "country": "GB", "latitude": 51.8747, "longitude": -0.3683 },
  { "iata": "MAN", "nameKo": "맨체스터 공항", "nameEn": "Manchester Airport", "cityKo": "맨체스터", "cityEn": "Manchester", "country": "GB", "latitude": 53.3537, "longitude": -2.2750 },
  { "iata": "EDI", "nameKo": "에든버러 공항", "nameEn": "Edinburgh Airport", "cityKo": "에든버러", "cityEn": "Edinburgh", "country": "GB", "latitude": 55.9500, "longitude": -3.3725 },
  { "iata": "GLA", "nameKo": "글래스고 공항", "nameEn": "Glasgow Airport", "cityKo": "글래스고", "cityEn": "Glasgow", "country": "GB", "latitude": 55.8719, "longitude": -4.4331 },
  { "iata": "BHX", "nameKo": "버밍엄 공항", "nameEn": "Birmingham Airport", "cityKo": "버밍엄", "cityEn": "Birmingham", "country": "GB", "latitude": 52.4539, "longitude": -1.7480 },
  { "iata": "BRS", "nameKo": "브리스톨 공항", "nameEn": "Bristol Airport", "cityKo": "브리스톨", "cityEn": "Bristol", "country": "GB", "latitude": 51.3827, "longitude": -2.7191 },
  { "iata": "NCL", "nameKo": "뉴캐슬 공항", "nameEn": "Newcastle Airport", "cityKo": "뉴캐슬", "cityEn": "Newcastle", "country": "GB", "latitude": 55.0375, "longitude": -1.6917 },
  { "iata": "LBA", "nameKo": "리즈 브래드퍼드 공항", "nameEn": "Leeds Bradford Airport", "cityKo": "리즈", "cityEn": "Leeds", "country": "GB", "latitude": 53.8659, "longitude": -1.6606 },
  { "iata": "BFS", "nameKo": "벨파스트 국제공항", "nameEn": "Belfast Int'l Airport", "cityKo": "벨파스트", "cityEn": "Belfast", "country": "GB", "latitude": 54.6575, "longitude": -6.2158 },
  { "iata": "ABZ", "nameKo": "애버딘 공항", "nameEn": "Aberdeen Airport", "cityKo": "애버딘", "cityEn": "Aberdeen", "country": "GB", "latitude": 57.2019, "longitude": -2.1978 },
  { "iata": "INV", "nameKo": "인버네스 공항", "nameEn": "Inverness Airport", "cityKo": "인버네스", "cityEn": "Inverness", "country": "GB", "latitude": 57.5425, "longitude": -4.0475 },
  { "iata": "CWL", "nameKo": "카디프 공항", "nameEn": "Cardiff Airport", "cityKo": "카디프", "cityEn": "Cardiff", "country": "GB", "latitude": 51.3967, "longitude": -3.3431 },
  { "iata": "SOU", "nameKo": "사우샘프턴 공항", "nameEn": "Southampton Airport", "cityKo": "사우샘프턴", "cityEn": "Southampton", "country": "GB", "latitude": 50.9503, "longitude": -1.3568 },
  { "iata": "BHD", "nameKo": "조지 베스트 벨파스트 시티 공항", "nameEn": "George Best Belfast City", "cityKo": "벨파스트", "cityEn": "Belfast", "country": "GB", "latitude": 54.6181, "longitude": -5.8725 },
  { "iata": "BGY", "nameKo": "밀라노 베르가모 공항", "nameEn": "Milan Bergamo Airport", "cityKo": "베르가모", "cityEn": "Bergamo", "country": "IT", "latitude": 45.6739, "longitude": 9.7042 },
  { "iata": "CIA", "nameKo": "로마 참피노 공항", "nameEn": "Rome Ciampino Airport", "cityKo": "로마", "cityEn": "Rome", "country": "IT", "latitude": 41.7994, "longitude": 12.5949 },
  { "iata": "BLQ", "nameKo": "볼로냐 굴리엘모 마르코니 공항", "nameEn": "Bologna Guglielmo Marconi", "cityKo": "볼로냐", "cityEn": "Bologna", "country": "IT", "latitude": 44.5354, "longitude": 11.2887 },
  { "iata": "PSA", "nameKo": "피사 갈릴레오 갈릴레이 공항", "nameEn": "Pisa Galileo Galilei", "cityKo": "피사", "cityEn": "Pisa", "country": "IT", "latitude": 43.6839, "longitude": 10.3927 },
  { "iata": "FLR", "nameKo": "피렌체 페레톨라 공항", "nameEn": "Florence Peretola Airport", "cityKo": "피렌체", "cityEn": "Florence", "country": "IT", "latitude": 43.8100, "longitude": 11.2051 },
  { "iata": "TRN", "nameKo": "토리노 카셀레 공항", "nameEn": "Turin Caselle Airport", "cityKo": "토리노", "cityEn": "Turin", "country": "IT", "latitude": 45.2008, "longitude": 7.6497 },
  { "iata": "GOA", "nameKo": "제노아 크리스토퍼 콜롬보 공항", "nameEn": "Genoa Cristoforo Colombo", "cityKo": "제노아", "cityEn": "Genoa", "country": "IT", "latitude": 44.4133, "longitude": 8.8375 },
  { "iata": "CTA", "nameKo": "카타니아 폰타나로사 공항", "nameEn": "Catania Fontanarossa", "cityKo": "카타니아", "cityEn": "Catania", "country": "IT", "latitude": 37.4668, "longitude": 15.0664 },
  { "iata": "PMO", "nameKo": "팔레르모 팔코네 보르셀리노 공항", "nameEn": "Palermo Falcone Borsellino", "cityKo": "팔레르모", "cityEn": "Palermo", "country": "IT", "latitude": 38.1759, "longitude": 13.0910 },
  { "iata": "BRI", "nameKo": "바리 카롤 보이티야 공항", "nameEn": "Bari Karol Wojtyła", "cityKo": "바리", "cityEn": "Bari", "country": "IT", "latitude": 41.1389, "longitude": 16.7606 },
  { "iata": "CAG", "nameKo": "칼리아리 엘마스 공항", "nameEn": "Cagliari Elmas Airport", "cityKo": "칼리아리", "cityEn": "Cagliari", "country": "IT", "latitude": 39.2515, "longitude": 9.0543 },
  { "iata": "OLB", "nameKo": "올비아 코스타 스메랄다 공항", "nameEn": "Olbia Costa Smeralda", "cityKo": "올비아", "cityEn": "Olbia", "country": "IT", "latitude": 40.8987, "longitude": 9.5176 },
  { "iata": "ALC", "nameKo": "알리칸테 엘체 공항", "nameEn": "Alicante-Elche Airport", "cityKo": "알리칸테", "cityEn": "Alicante", "country": "ES", "latitude": 38.2822, "longitude": -0.5581 },
  { "iata": "PMI", "nameKo": "팔마 데 마요르카 공항", "nameEn": "Palma de Mallorca Airport", "cityKo": "팔마 데 마요르카", "cityEn": "Palma de Mallorca", "country": "ES", "latitude": 39.5517, "longitude": 2.7388 },
  { "iata": "TFS", "nameKo": "테네리페 사우스 공항", "nameEn": "Tenerife South Airport", "cityKo": "테네리페", "cityEn": "Tenerife", "country": "ES", "latitude": 28.0445, "longitude": -16.5725 },
  { "iata": "TFN", "nameKo": "테네리페 노스 공항", "nameEn": "Tenerife North Airport", "cityKo": "테네리페", "cityEn": "Tenerife", "country": "ES", "latitude": 28.4827, "longitude": -16.3415 },
  { "iata": "LPA", "nameKo": "그란 카나리아 공항", "nameEn": "Gran Canaria Airport", "cityKo": "그란 카나리아", "cityEn": "Gran Canaria", "country": "ES", "latitude": 27.9319, "longitude": -15.3866 },
  { "iata": "FUE", "nameKo": "푸에르테벤투라 공항", "nameEn": "Fuerteventura Airport", "cityKo": "푸에르테벤투라", "cityEn": "Fuerteventura", "country": "ES", "latitude": 28.4527, "longitude": -13.8638 },
  { "iata": "ACE", "nameKo": "란사로테 공항", "nameEn": "Lanzarote Airport", "cityKo": "란사로테", "cityEn": "Lanzarote", "country": "ES", "latitude": 28.9455, "longitude": -13.6052 },
  { "iata": "SVQ", "nameKo": "세비야 공항", "nameEn": "Seville Airport", "cityKo": "세비야", "cityEn": "Seville", "country": "ES", "latitude": 37.4180, "longitude": -5.8931 },
  { "iata": "BIO", "nameKo": "빌바오 공항", "nameEn": "Bilbao Airport", "cityKo": "빌바오", "cityEn": "Bilbao", "country": "ES", "latitude": 43.3011, "longitude": -2.9106 },
  { "iata": "SDR", "nameKo": "산탄데르 공항", "nameEn": "Santander Airport", "cityKo": "산탄데르", "cityEn": "Santander", "country": "ES", "latitude": 43.4270, "longitude": -3.8200 },
  { "iata": "OVD", "nameKo": "아스투리아스 공항", "nameEn": "Asturias Airport", "cityKo": "오비에도", "cityEn": "Oviedo", "country": "ES", "latitude": 43.5636, "longitude": -6.0346 },
  { "iata": "GRX", "nameKo": "그라나다 하엔 공항", "nameEn": "Granada-Jaén Airport", "cityKo": "그라나다", "cityEn": "Granada", "country": "ES", "latitude": 37.1887, "longitude": -3.7770 },
  { "iata": "IBZ", "nameKo": "이비자 공항", "nameEn": "Ibiza Airport", "cityKo": "이비자", "cityEn": "Ibiza", "country": "ES", "latitude": 38.8729, "longitude": 1.3731 },
  { "iata": "MAH", "nameKo": "메노르카 공항", "nameEn": "Menorca Airport", "cityKo": "메노르카", "cityEn": "Menorca", "country": "ES", "latitude": 39.8626, "longitude": 4.2186 },
  { "iata": "ROT", "nameKo": "로토루아 공항", "nameEn": "Rotorua Airport", "cityKo": "로토루아", "cityEn": "Rotorua", "country": "NZ", "latitude": -38.1092, "longitude": 176.3170 },
  { "iata": "CHC", "nameKo": "크라이스트처치 국제공항", "nameEn": "Christchurch Int'l Airport", "cityKo": "크라이스트처치", "cityEn": "Christchurch", "country": "NZ", "latitude": -43.4894, "longitude": 172.5320 },
  { "iata": "WLG", "nameKo": "웰링턴 국제공항", "nameEn": "Wellington Int'l Airport", "cityKo": "웰링턴", "cityEn": "Wellington", "country": "NZ", "latitude": -41.3272, "longitude": 174.8050 },
  { "iata": "ZQN", "nameKo": "퀸스타운 공항", "nameEn": "Queenstown Airport", "cityKo": "퀸스타운", "cityEn": "Queenstown", "country": "NZ", "latitude": -45.0211, "longitude": 168.7392 },
  { "iata": "DUD", "nameKo": "더니든 공항", "nameEn": "Dunedin Airport", "cityKo": "더니든", "cityEn": "Dunedin", "country": "NZ", "latitude": -45.9281, "longitude": 170.1983 },
  { "iata": "PPT", "nameKo": "파페에테 파아 공항", "nameEn": "Papeete Faa'a Airport", "cityKo": "파페에테", "cityEn": "Papeete", "country": "PF", "latitude": -17.5567, "longitude": -149.6110 },
  { "iata": "NOU", "nameKo": "누메아 라 톤투타 공항", "nameEn": "Nouméa La Tontouta", "cityKo": "누메아", "cityEn": "Noumea", "country": "NC", "latitude": -22.0146, "longitude": 166.2130 },
  { "iata": "POM", "nameKo": "포트모르즈비 잭슨스 공항", "nameEn": "Port Moresby Jacksons", "cityKo": "포트모르즈비", "cityEn": "Port Moresby", "country": "PG", "latitude": -9.4434, "longitude": 147.2180 },
  { "iata": "ADL", "nameKo": "애들레이드 공항", "nameEn": "Adelaide Airport", "cityKo": "애들레이드", "cityEn": "Adelaide", "country": "AU", "latitude": -34.9450, "longitude": 138.5306 },
  { "iata": "DRW", "nameKo": "다윈 국제공항", "nameEn": "Darwin Int'l Airport", "cityKo": "다윈", "cityEn": "Darwin", "country": "AU", "latitude": -12.4147, "longitude": 130.8767 },
  { "iata": "CNS", "nameKo": "케언즈 공항", "nameEn": "Cairns Airport", "cityKo": "케언즈", "cityEn": "Cairns", "country": "AU", "latitude": -16.8858, "longitude": 145.7551 },
  { "iata": "OOL", "nameKo": "골드코스트 공항", "nameEn": "Gold Coast Airport", "cityKo": "골드코스트", "cityEn": "Gold Coast", "country": "AU", "latitude": -28.1644, "longitude": 153.5047 },
  { "iata": "CBR", "nameKo": "캔버라 공항", "nameEn": "Canberra Airport", "cityKo": "캔버라", "cityEn": "Canberra", "country": "AU", "latitude": -35.3069, "longitude": 149.1950 },
  { "iata": "HBA", "nameKo": "호바트 공항", "nameEn": "Hobart Airport", "cityKo": "호바트", "cityEn": "Hobart", "country": "AU", "latitude": -42.8361, "longitude": 147.5100 },
  { "iata": "ASP", "nameKo": "앨리스스프링스 공항", "nameEn": "Alice Springs Airport", "cityKo": "앨리스스프링스", "cityEn": "Alice Springs", "country": "AU", "latitude": -23.8067, "longitude": 133.9025 },
  { "iata": "TSN", "nameKo": "톈진 빈하이 국제공항", "nameEn": "Tianjin Binhai Int'l", "cityKo": "톈진", "cityEn": "Tianjin", "country": "CN", "latitude": 39.1244, "longitude": 117.3464 },
  { "iata": "XIY", "nameKo": "시안 셴양 국제공항", "nameEn": "Xi'an Xianyang Int'l", "cityKo": "시안", "cityEn": "Xi'an", "country": "CN", "latitude": 34.4471, "longitude": 108.7519 },
  { "iata": "URC", "nameKo": "우루무치 디워푸 국제공항", "nameEn": "Urumqi Diwopu Int'l", "cityKo": "우루무치", "cityEn": "Urumqi", "country": "CN", "latitude": 43.9071, "longitude": 87.4742 },
  { "iata": "HGH", "nameKo": "항저우 샤오산 국제공항", "nameEn": "Hangzhou Xiaoshan Int'l", "cityKo": "항저우", "cityEn": "Hangzhou", "country": "CN", "latitude": 30.2289, "longitude": 120.4341 },
  { "iata": "NKG", "nameKo": "난징 루커우 국제공항", "nameEn": "Nanjing Lukou Int'l", "cityKo": "난징", "cityEn": "Nanjing", "country": "CN", "latitude": 31.7420, "longitude": 118.8620 },
  { "iata": "WUH", "nameKo": "우한 톈허 국제공항", "nameEn": "Wuhan Tianhe Int'l", "cityKo": "우한", "cityEn": "Wuhan", "country": "CN", "latitude": 30.7838, "longitude": 114.2081 },
  { "iata": "CSX", "nameKo": "창사 황화 국제공항", "nameEn": "Changsha Huanghua Int'l", "cityKo": "창사", "cityEn": "Changsha", "country": "CN", "latitude": 28.1892, "longitude": 113.2200 },
  { "iata": "CGO", "nameKo": "정저우 신정 국제공항", "nameEn": "Zhengzhou Xinzheng Int'l", "cityKo": "정저우", "cityEn": "Zhengzhou", "country": "CN", "latitude": 34.5197, "longitude": 113.8408 },
  { "iata": "TAO", "nameKo": "칭다오 자오둥 국제공항", "nameEn": "Qingdao Jiaodong Int'l", "cityKo": "칭다오", "cityEn": "Qingdao", "country": "CN", "latitude": 36.3666, "longitude": 120.0819 },
  { "iata": "DLC", "nameKo": "다롄 저우수이쯔 국제공항", "nameEn": "Dalian Zhoushuizi Int'l", "cityKo": "다롄", "cityEn": "Dalian", "country": "CN", "latitude": 38.9657, "longitude": 121.5386 },
  { "iata": "SHE", "nameKo": "선양 타오셴 국제공항", "nameEn": "Shenyang Taoxian Int'l", "cityKo": "선양", "cityEn": "Shenyang", "country": "CN", "latitude": 41.6398, "longitude": 123.4839 },
  { "iata": "HRB", "nameKo": "하얼빈 타이핑 국제공항", "nameEn": "Harbin Taiping Int'l", "cityKo": "하얼빈", "cityEn": "Harbin", "country": "CN", "latitude": 45.6234, "longitude": 126.2500 },
  { "iata": "FOC", "nameKo": "푸저우 창러 국제공항", "nameEn": "Fuzhou Changle Int'l", "cityKo": "푸저우", "cityEn": "Fuzhou", "country": "CN", "latitude": 25.9351, "longitude": 119.6633 },
  { "iata": "XMN", "nameKo": "샤먼 가오치 국제공항", "nameEn": "Xiamen Gaoqi Int'l", "cityKo": "샤먼", "cityEn": "Xiamen", "country": "CN", "latitude": 24.5440, "longitude": 118.1278 },
  { "iata": "NNG", "nameKo": "난닝 우수 국제공항", "nameEn": "Nanning Wuxu Int'l", "cityKo": "난닝", "cityEn": "Nanning", "country": "CN", "latitude": 22.6083, "longitude": 108.1722 },
  { "iata": "KWL", "nameKo": "구이린 량장 국제공항", "nameEn": "Guilin Liangjiang Int'l", "cityKo": "구이린", "cityEn": "Guilin", "country": "CN", "latitude": 25.2181, "longitude": 110.0392 },
  { "iata": "GYK", "nameKo": "구이양 룽둥바오 국제공항", "nameEn": "Guiyang Longdongbao Int'l", "cityKo": "구이양", "cityEn": "Guiyang", "country": "CN", "latitude": 26.5385, "longitude": 106.8007 },
  { "iata": "CKG", "nameKo": "충칭 장베이 국제공항", "nameEn": "Chongqing Jiangbei Int'l", "cityKo": "충칭", "cityEn": "Chongqing", "country": "CN", "latitude": 29.7192, "longitude": 106.6417 },
  { "iata": "INC", "nameKo": "인촨 허둥 국제공항", "nameEn": "Yinchuan Hedong Int'l", "cityKo": "인촨", "cityEn": "Yinchuan", "country": "CN", "latitude": 38.4819, "longitude": 106.3931 },
  { "iata": "LHW", "nameKo": "란저우 중촨 국제공항", "nameEn": "Lanzhou Zhongchuan Int'l", "cityKo": "란저우", "cityEn": "Lanzhou", "country": "CN", "latitude": 36.5152, "longitude": 103.6200 },
  { "iata": "XNN", "nameKo": "시닝 차오양 국제공항", "nameEn": "Xining Caojiabu Int'l", "cityKo": "시닝", "cityEn": "Xining", "country": "CN", "latitude": 36.5275, "longitude": 102.0431 },
  { "iata": "LXA", "nameKo": "라싸 공가 공항", "nameEn": "Lhasa Gonggar Airport", "cityKo": "라싸", "cityEn": "Lhasa", "country": "CN", "latitude": 29.2978, "longitude": 90.9119 },
  { "iata": "HAK", "nameKo": "하이커우 메이란 국제공항", "nameEn": "Haikou Meilan Int'l", "cityKo": "하이커우", "cityEn": "Haikou", "country": "CN", "latitude": 19.9349, "longitude": 110.4591 },
  { "iata": "SYX", "nameKo": "산야 펑황 국제공항", "nameEn": "Sanya Phoenix Int'l", "cityKo": "산야", "cityEn": "Sanya", "country": "CN", "latitude": 18.3029, "longitude": 109.4124 },
  { "iata": "KHH", "nameKo": "가오슝 국제공항", "nameEn": "Kaohsiung Int'l Airport", "cityKo": "가오슝", "cityEn": "Kaohsiung", "country": "TW", "latitude": 22.5771, "longitude": 120.3497 },
  { "iata": "TSA", "nameKo": "쑹산 공항", "nameEn": "Songshan Airport", "cityKo": "타이베이", "cityEn": "Taipei", "country": "TW", "latitude": 25.0694, "longitude": 121.5528 },
  { "iata": "RMQ", "nameKo": "타이중 칭취안강 공항", "nameEn": "Taichung Ching Chuang Kang", "cityKo": "타이중", "cityEn": "Taichung", "country": "TW", "latitude": 24.2647, "longitude": 120.6200 },
  { "iata": "TNN", "nameKo": "타이난 공항", "nameEn": "Tainan Airport", "cityKo": "타이난", "cityEn": "Tainan", "country": "TW", "latitude": 22.9447, "longitude": 120.2061 },
  { "iata": "HSG", "nameKo": "사가 공항", "nameEn": "Saga Airport", "cityKo": "사가", "cityEn": "Saga", "country": "JP", "latitude": 33.1500, "longitude": 130.3025 },
  { "iata": "KMJ", "nameKo": "구마모토 공항", "nameEn": "Kumamoto Airport", "cityKo": "구마모토", "cityEn": "Kumamoto", "country": "JP", "latitude": 32.8373, "longitude": 130.8550 },
  { "iata": "OIT", "nameKo": "오이타 공항", "nameEn": "Oita Airport", "cityKo": "오이타", "cityEn": "Oita", "country": "JP", "latitude": 33.4794, "longitude": 131.7372 },
  { "iata": "NGS", "nameKo": "나가사키 공항", "nameEn": "Nagasaki Airport", "cityKo": "나가사키", "cityEn": "Nagasaki", "country": "JP", "latitude": 32.9169, "longitude": 129.9136 },
  { "iata": "MYJ", "nameKo": "마쓰야마 공항", "nameEn": "Matsuyama Airport", "cityKo": "마쓰야마", "cityEn": "Matsuyama", "country": "JP", "latitude": 33.8272, "longitude": 132.6997 },
  { "iata": "TAK", "nameKo": "다카마쓰 공항", "nameEn": "Takamatsu Airport", "cityKo": "다카마쓰", "cityEn": "Takamatsu", "country": "JP", "latitude": 34.2142, "longitude": 134.0006 },
  { "iata": "UKB", "nameKo": "고베 공항", "nameEn": "Kobe Airport", "cityKo": "고베", "cityEn": "Kobe", "country": "JP", "latitude": 34.6328, "longitude": 135.2240 },
  { "iata": "ITM", "nameKo": "이타미 공항", "nameEn": "Osaka Int'l Airport", "cityKo": "오사카", "cityEn": "Osaka", "country": "JP", "latitude": 34.7855, "longitude": 135.4381 },
  { "iata": "SHM", "nameKo": "시라하마 공항", "nameEn": "Shirahama Airport", "cityKo": "시라하마", "cityEn": "Shirahama", "country": "JP", "latitude": 33.6622, "longitude": 135.3644 },
  { "iata": "TKS", "nameKo": "도쿠시마 공항", "nameEn": "Tokushima Airport", "cityKo": "도쿠시마", "cityEn": "Tokushima", "country": "JP", "latitude": 34.1328, "longitude": 134.6067 },
  { "iata": "KCZ", "nameKo": "고치 료마 공항", "nameEn": "Kochi Ryoma Airport", "cityKo": "고치", "cityEn": "Kochi", "country": "JP", "latitude": 33.5461, "longitude": 133.6694 },
  { "iata": "AOJ", "nameKo": "아오모리 공항", "nameEn": "Aomori Airport", "cityKo": "아오모리", "cityEn": "Aomori", "country": "JP", "latitude": 40.7347, "longitude": 140.6908 },
  { "iata": "HHE", "nameKo": "하나마키 공항", "nameEn": "Hanamaki Airport", "cityKo": "하나마키", "cityEn": "Hanamaki", "country": "JP", "latitude": 39.4286, "longitude": 141.1353 },
  { "iata": "AKJ", "nameKo": "아사히카와 공항", "nameEn": "Asahikawa Airport", "cityKo": "아사히카와", "cityEn": "Asahikawa", "country": "JP", "latitude": 43.6708, "longitude": 142.4472 },
  { "iata": "HKD", "nameKo": "하코다테 공항", "nameEn": "Hakodate Airport", "cityKo": "하코다테", "cityEn": "Hakodate", "country": "JP", "latitude": 41.7700, "longitude": 140.8219 },
  { "iata": "OBO", "nameKo": "오비히로 공항", "nameEn": "Obihiro Airport", "cityKo": "오비히로", "cityEn": "Obihiro", "country": "JP", "latitude": 42.7333, "longitude": 143.2167 },
  { "iata": "KUH", "nameKo": "구시로 공항", "nameEn": "Kushiro Airport", "cityKo": "구시로", "cityEn": "Kushiro", "country": "JP", "latitude": 43.0411, "longitude": 144.1931 },
  { "iata": "MMB", "nameKo": "메만베쓰 공항", "nameEn": "Memanbetsu Airport", "cityKo": "아바시리", "cityEn": "Abashiri", "country": "JP", "latitude": 43.8806, "longitude": 144.1639 },
  { "iata": "WKJ", "nameKo": "왓카나이 공항", "nameEn": "Wakkanai Airport", "cityKo": "왓카나이", "cityEn": "Wakkanai", "country": "JP", "latitude": 45.4042, "longitude": 141.8006 },
  { "iata": "ISG", "nameKo": "이시가키 신이시가키 공항", "nameEn": "New Ishigaki Airport", "cityKo": "이시가키", "cityEn": "Ishigaki", "country": "JP", "latitude": 24.3964, "longitude": 124.2447 },
  { "iata": "MMY", "nameKo": "미야코 공항", "nameEn": "Miyako Airport", "cityKo": "미야코지마", "cityEn": "Miyakojima", "country": "JP", "latitude": 24.7828, "longitude": 125.2950 },
  { "iata": "KUM", "nameKo": "야쿠시마 공항", "nameEn": "Yakushima Airport", "cityKo": "야쿠시마", "cityEn": "Yakushima", "country": "JP", "latitude": 30.3856, "longitude": 130.4592 },
  { "iata": "TKN", "nameKo": "도쿠노시마 공항", "nameEn": "Tokunoshima Airport", "cityKo": "도쿠노시마", "cityEn": "Tokunoshima", "country": "JP", "latitude": 27.8364, "longitude": 128.8814 },
  { "iata": "ASJ", "nameKo": "아마미 공항", "nameEn": "Amami Airport", "cityKo": "아마미오시마", "cityEn": "Amami Oshima", "country": "JP", "latitude": 28.4303, "longitude": 129.7125 },
  { "iata": "KIJ", "nameKo": "니가타 공항", "nameEn": "Niigata Airport", "cityKo": "니가타", "cityEn": "Niigata", "country": "JP", "latitude": 37.9559, "longitude": 139.1211 },
  { "iata": "TOY", "nameKo": "도야마 공항", "nameEn": "Toyama Airport", "cityKo": "도야마", "cityEn": "Toyama", "country": "JP", "latitude": 36.6483, "longitude": 137.2886 },
  { "iata": "KMQ", "nameKo": "고마쓰 공항", "nameEn": "Komatsu Airport", "cityKo": "고마쓰", "cityEn": "Komatsu", "country": "JP", "latitude": 36.3946, "longitude": 136.4067 },
  { "iata": "FKJ", "nameKo": "후쿠이 공항", "nameEn": "Fukui Airport", "cityKo": "후쿠이", "cityEn": "Fukui", "country": "JP", "latitude": 36.0150, "longitude": 136.2167 },
  { "iata": "QIW", "nameKo": "이와쿠니 공항", "nameEn": "Iwakuni Airport", "cityKo": "이와쿠니", "cityEn": "Iwakuni", "country": "JP", "latitude": 34.1442, "longitude": 132.2356 },
  { "iata": "YGJ", "nameKo": "요나고 공항", "nameEn": "Yonago Airport", "cityKo": "요나고", "cityEn": "Yonago", "country": "JP", "latitude": 35.4922, "longitude": 133.2361 },
  { "iata": "IZO", "nameKo": "이즈모 공항", "nameEn": "Izumo Airport", "cityKo": "이즈모", "cityEn": "Izumo", "country": "JP", "latitude": 35.4136, "longitude": 132.8900 },
  { "iata": "UBJ", "nameKo": "야마구치 우베 공항", "nameEn": "Yamaguchi Ube Airport", "cityKo": "우베", "cityEn": "Ube", "country": "JP", "latitude": 33.9300, "longitude": 131.2786 },
  { "iata": "SVO", "nameKo": "셰레메티예보 국제공항", "nameEn": "Sheremetyevo Int'l Airport", "cityKo": "모스크바", "cityEn": "Moscow", "country": "RU", "latitude": 55.9726, "longitude": 37.4146 },
  { "iata": "DME", "nameKo": "도모데도보 국제공항", "nameEn": "Domodedovo Int'l Airport", "cityKo": "모스크바", "cityEn": "Moscow", "country": "RU", "latitude": 55.4088, "longitude": 37.9063 },
  { "iata": "VKO", "nameKo": "브누코보 국제공항", "nameEn": "Vnukovo Int'l Airport", "cityKo": "모스크바", "cityEn": "Moscow", "country": "RU", "latitude": 55.5915, "longitude": 37.2615 },
  { "iata": "LED", "nameKo": "풀코보 공항", "nameEn": "Pulkovo Airport", "cityKo": "상트페테르부르크", "cityEn": "Saint Petersburg", "country": "RU", "latitude": 59.8003, "longitude": 30.2625 },
  { "iata": "KRK", "nameKo": "발레사 공항", "nameEn": "John Paul II Int'l Airport", "cityKo": "크라쿠프", "cityEn": "Krakow", "country": "PL", "latitude": 50.0777, "longitude": 19.7848 },
  { "iata": "GDN", "nameKo": "레흐 바웬사 공항", "nameEn": "Lech Wałęsa Airport", "cityKo": "그단스크", "cityEn": "Gdansk", "country": "PL", "latitude": 54.3776, "longitude": 18.4662 },
  { "iata": "OTP", "nameKo": "오토페니 국제공항", "nameEn": "Henri Coandă Int'l Airport", "cityKo": "부쿠레슈티", "cityEn": "Bucharest", "country": "RO", "latitude": 44.5711, "longitude": 26.0850 },
  { "iata": "SOF", "nameKo": "소피아 공항", "nameEn": "Sofia Airport", "cityKo": "소피아", "cityEn": "Sofia", "country": "BG", "latitude": 42.6952, "longitude": 23.4114 },
  { "iata": "BEG", "nameKo": "니콜라 테슬라 공항", "nameEn": "Belgrade Nikola Tesla", "cityKo": "베오그라드", "cityEn": "Belgrade", "country": "RS", "latitude": 44.8184, "longitude": 20.3091 },
  { "iata": "ZAG", "nameKo": "자그레브 공항", "nameEn": "Zagreb Airport", "cityKo": "자그레브", "cityEn": "Zagreb", "country": "HR", "latitude": 45.7429, "longitude": 16.0688 },
  { "iata": "DBV", "nameKo": "두브로브니크 공항", "nameEn": "Dubrovnik Airport", "cityKo": "두브로브니크", "cityEn": "Dubrovnik", "country": "HR", "latitude": 42.5614, "longitude": 18.2682 },
  { "iata": "SPU", "nameKo": "스플리트 공항", "nameEn": "Split Airport", "cityKo": "스플리트", "cityEn": "Split", "country": "HR", "latitude": 43.5389, "longitude": 16.2980 },
  { "iata": "LJU", "nameKo": "류블랴나 공항", "nameEn": "Ljubljana Jože Pučnik", "cityKo": "류블랴나", "cityEn": "Ljubljana", "country": "SI", "latitude": 46.2238, "longitude": 14.4576 },
  { "iata": "BTS", "nameKo": "브라티슬라바 공항", "nameEn": "Bratislava Airport", "cityKo": "브라티슬라바", "cityEn": "Bratislava", "country": "SK", "latitude": 48.1702, "longitude": 17.2127 },
  { "iata": "TLL", "nameKo": "탈린 공항", "nameEn": "Tallinn Airport", "cityKo": "탈린", "cityEn": "Tallinn", "country": "EE", "latitude": 59.4133, "longitude": 24.8328 },
  { "iata": "RIX", "nameKo": "리가 국제공항", "nameEn": "Riga Int'l Airport", "cityKo": "리가", "cityEn": "Riga", "country": "LV", "latitude": 56.9236, "longitude": 23.9711 },
  { "iata": "VNO", "nameKo": "빌뉴스 공항", "nameEn": "Vilnius Airport", "cityKo": "빌뉴스", "cityEn": "Vilnius", "country": "LT", "latitude": 54.6341, "longitude": 25.2858 },
  { "iata": "MLA", "nameKo": "몰타 국제공항", "nameEn": "Malta Int'l Airport", "cityKo": "발레타", "cityEn": "Valletta", "country": "MT", "latitude": 35.8528, "longitude": 14.4775 },
  { "iata": "LCA", "nameKo": "라르나카 국제공항", "nameEn": "Larnaca Int'l Airport", "cityKo": "라르나카", "cityEn": "Larnaca", "country": "CY", "latitude": 34.8751, "longitude": 33.6249 },
  { "iata": "PFO", "nameKo": "파포스 국제공항", "nameEn": "Paphos Int'l Airport", "cityKo": "파포스", "cityEn": "Paphos", "country": "CY", "latitude": 34.7180, "longitude": 32.4857 },
  { "iata": "TIA", "nameKo": "티라나 국제공항", "nameEn": "Tirana Int'l Airport", "cityKo": "티라나", "cityEn": "Tirana", "country": "AL", "latitude": 41.4147, "longitude": 19.7206 },
  { "iata": "SKP", "nameKo": "스코페 공항", "nameEn": "Skopje Int'l Airport", "cityKo": "스코페", "cityEn": "Skopje", "country": "MK", "latitude": 41.9616, "longitude": 21.6214 },
  { "iata": "HER", "nameKo": "이라클리오 공항", "nameEn": "Heraklion Int'l Airport", "cityKo": "이라클리오", "cityEn": "Heraklion", "country": "GR", "latitude": 35.3397, "longitude": 25.1803 },
  { "iata": "RHO", "nameKo": "로도스 국제공항", "nameEn": "Rhodes Int'l Airport", "cityKo": "로도스", "cityEn": "Rhodes", "country": "GR", "latitude": 36.4054, "longitude": 28.0862 },
  { "iata": "JTR", "nameKo": "산토리니 공항", "nameEn": "Santorini Airport", "cityKo": "산토리니", "cityEn": "Santorini", "country": "GR", "latitude": 36.3992, "longitude": 25.4793 },
  { "iata": "SKG", "nameKo": "테살로니키 공항", "nameEn": "Thessaloniki Airport", "cityKo": "테살로니키", "cityEn": "Thessaloniki", "country": "GR", "latitude": 40.5244, "longitude": 22.9709 },
  { "iata": "CFU", "nameKo": "코르푸 공항", "nameEn": "Corfu Int'l Airport", "cityKo": "코르푸", "cityEn": "Corfu", "country": "GR", "latitude": 39.6019, "longitude": 19.9117 },
  { "iata": "SAW", "nameKo": "사비하 괵첸 국제공항", "nameEn": "Sabiha Gökçen Int'l", "cityKo": "이스탄불", "cityEn": "Istanbul", "country": "TR", "latitude": 40.8986, "longitude": 29.3092 },
  { "iata": "ADB", "nameKo": "이즈미르 아드난 멘데레스 공항", "nameEn": "İzmir Adnan Menderes", "cityKo": "이즈미르", "cityEn": "Izmir", "country": "TR", "latitude": 38.2924, "longitude": 27.1570 },
  { "iata": "AYT", "nameKo": "안탈리아 공항", "nameEn": "Antalya Airport", "cityKo": "안탈리아", "cityEn": "Antalya", "country": "TR", "latitude": 36.8987, "longitude": 30.8004 },
  { "iata": "BJV", "nameKo": "밀라스 보드룸 공항", "nameEn": "Milas-Bodrum Airport", "cityKo": "보드룸", "cityEn": "Bodrum", "country": "TR", "latitude": 37.2506, "longitude": 27.6643 },
  { "iata": "DLM", "nameKo": "달라만 공항", "nameEn": "Dalaman Airport", "cityKo": "달라만", "cityEn": "Dalaman", "country": "TR", "latitude": 36.7131, "longitude": 28.7925 },
  { "iata": "ESB", "nameKo": "에센보아 공항", "nameEn": "Esenboğa Airport", "cityKo": "앙카라", "cityEn": "Ankara", "country": "TR", "latitude": 40.1281, "longitude": 32.9951 },
  { "iata": "TZX", "nameKo": "트라브존 공항", "nameEn": "Trabzon Airport", "cityKo": "트라브존", "cityEn": "Trabzon", "country": "TR", "latitude": 40.9951, "longitude": 39.7897 },
  { "iata": "GZT", "nameKo": "가지안테프 공항", "nameEn": "Gaziantep Airport", "cityKo": "가지안테프", "cityEn": "Gaziantep", "country": "TR", "latitude": 36.9472, "longitude": 37.4787 },
  { "iata": "ASR", "nameKo": "카이세리 공항", "nameEn": "Kayseri Airport", "cityKo": "카이세리", "cityEn": "Kayseri", "country": "TR", "latitude": 38.7704, "longitude": 35.4954 },
  { "iata": "BEY", "nameKo": "베이루트 라피크 하리리 국제공항", "nameEn": "Beirut-Rafic Hariri Int'l", "cityKo": "베이루트", "cityEn": "Beirut", "country": "LB", "latitude": 33.8209, "longitude": 35.4884 },
  { "iata": "AMM", "nameKo": "퀸 알리아 국제공항", "nameEn": "Queen Alia Int'l Airport", "cityKo": "암만", "cityEn": "Amman", "country": "JO", "latitude": 31.7226, "longitude": 35.9932 },
  { "iata": "TLV", "nameKo": "벤구리온 공항", "nameEn": "Ben Gurion Airport", "cityKo": "텔아비브", "cityEn": "Tel Aviv", "country": "IL", "latitude": 32.0114, "longitude": 34.8867 },
  { "iata": "VDA", "nameKo": "오브다 공항", "nameEn": "Ovda Airport", "cityKo": "에일라트", "cityEn": "Eilat", "country": "IL", "latitude": 29.9403, "longitude": 34.9358 },
  { "iata": "ETM", "nameKo": "일란 및 아사프 라몬 공항", "nameEn": "Ilan & Assaf Ramon Airport", "cityKo": "에일라트", "cityEn": "Eilat", "country": "IL", "latitude": 29.7197, "longitude": 35.0120 },
  { "iata": "HFA", "nameKo": "하이파 공항", "nameEn": "Haifa Airport", "cityKo": "하이파", "cityEn": "Haifa", "country": "IL", "latitude": 32.8094, "longitude": 35.0431 },
  { "iata": "SDV", "nameKo": "스데 도브 공항", "nameEn": "Sde Dov Airport", "cityKo": "텔아비브", "cityEn": "Tel Aviv", "country": "IL", "latitude": 32.1147, "longitude": 34.7822 },
  { "iata": "SLL", "nameKo": "살랄라 국제공항", "nameEn": "Salalah Int'l Airport", "cityKo": "살랄라", "cityEn": "Salalah", "country": "OM", "latitude": 17.0387, "longitude": 54.0913 },
  { "iata": "KWI", "nameKo": "쿠웨이트 국제공항", "nameEn": "Kuwait Int'l Airport", "cityKo": "쿠웨이트", "cityEn": "Kuwait", "country": "KW", "latitude": 29.2267, "longitude": 47.9689 },
  { "iata": "BAH", "nameKo": "바레인 국제공항", "nameEn": "Bahrain Int'l Airport", "cityKo": "마나마", "cityEn": "Manama", "country": "BH", "latitude": 26.2708, "longitude": 50.6336 },
  { "iata": "SHJ", "nameKo": "샤르자 국제공항", "nameEn": "Sharjah Int'l Airport", "cityKo": "샤르자", "cityEn": "Sharjah", "country": "AE", "latitude": 25.3286, "longitude": 55.5172 },
  { "iata": "RKT", "nameKo": "라스알카이마 국제공항", "nameEn": "Ras Al Khaimah Int'l", "cityKo": "라스알카이마", "cityEn": "Ras Al Khaimah", "country": "AE", "latitude": 25.6135, "longitude": 55.9388 },
  { "iata": "AAN", "nameKo": "알 ain 국제공항", "nameEn": "Al Ain Int'l Airport", "cityKo": "알아인", "cityEn": "Al Ain", "country": "AE", "latitude": 24.2617, "longitude": 55.6092 },
  { "iata": "FJR", "nameKo": "푸자이라 국제공항", "nameEn": "Fujairah Int'l Airport", "cityKo": "푸자이라", "cityEn": "Fujairah", "country": "AE", "latitude": 25.1121, "longitude": 56.3240 },
  { "iata": "MED", "nameKo": "무함마드 빈 압둘아지즈 공항", "nameEn": "Prince Mohammad Bin Abdulaziz", "cityKo": "메디나", "cityEn": "Medina", "country": "SA", "latitude": 24.5534, "longitude": 39.7051 },
  { "iata": "DMM", "nameKo": "킹 파흐드 국제공항", "nameEn": "King Fahd Int'l Airport", "cityKo": "담맘", "cityEn": "Dammam", "country": "SA", "latitude": 26.4712, "longitude": 49.7979 },
  { "iata": "TUU", "nameKo": "타부크 지역 공항", "nameEn": "Tabuk Regional Airport", "cityKo": "타부크", "cityEn": "Tabuk", "country": "SA", "latitude": 28.3832, "longitude": 36.6186 },
  { "iata": "AHB", "nameKo": "아브하 지역 공항", "nameEn": "Abha Regional Airport", "cityKo": "아브하", "cityEn": "Abha", "country": "SA", "latitude": 18.2404, "longitude": 42.6566 },
  { "iata": "GIZ", "nameKo": "자잔 지역 공항", "nameEn": "Jazan Regional Airport", "cityKo": "자잔", "cityEn": "Jazan", "country": "SA", "latitude": 16.9011, "longitude": 42.5852 },
  { "iata": "ELQ", "nameKo": "가심 지역 공항", "nameEn": "Gassim Regional Airport", "cityKo": "부라이다", "cityEn": "Buraidah", "country": "SA", "latitude": 26.3028, "longitude": 43.7744 },
  { "iata": "HOF", "nameKo": "알 아하사 공항", "nameEn": "Al Ahsa Airport", "cityKo": "호푸프", "cityEn": "Hofuf", "country": "SA", "latitude": 25.2853, "longitude": 49.4852 },
  { "iata": "RAH", "nameKo": "라프하 공항", "nameEn": "Rafha Airport", "cityKo": "라프하", "cityEn": "Rafha", "country": "SA", "latitude": 29.6263, "longitude": 43.4926 },
  { "iata": "URY", "nameKo": "구리아트 공항", "nameEn": "Guriat Airport", "cityKo": "구리아트", "cityEn": "Guriat", "country": "SA", "latitude": 31.4119, "longitude": 37.2794 },
  { "iata": "EAM", "nameKo": "네이란 공항", "nameEn": "Nejran Airport", "cityKo": "네이란", "cityEn": "Nejran", "country": "SA", "latitude": 17.6111, "longitude": 44.4192 },
  { "iata": "WAE", "nameKo": "와디 알 다와시르 공항", "nameEn": "Wadi Al Dawasir Airport", "cityKo": "와디 알 다와시르", "cityEn": "Wadi Al Dawasir", "country": "SA", "latitude": 20.5043, "longitude": 45.1997 },
  { "iata": "YNB", "nameKo": "옌부 공항", "nameEn": "Yanbu Airport", "cityKo": "옌부", "cityEn": "Yanbu", "country": "SA", "latitude": 24.1442, "longitude": 38.0634 },
  { "iata": "HRG", "nameKo": "후르가다 국제공항", "nameEn": "Hurghada Int'l Airport", "cityKo": "후르가다", "cityEn": "Hurghada", "country": "EG", "latitude": 27.1783, "longitude": 33.7994 },
  { "iata": "SSH", "nameKo": "샤름 엘 셰이크 공항", "nameEn": "Sharm El-Sheikh Int'l", "cityKo": "샤름 엘 셰이크", "cityEn": "Sharm El-Sheikh", "country": "EG", "latitude": 27.9773, "longitude": 34.3950 },
  { "iata": "LXR", "nameKo": "룩소르 국제공항", "nameEn": "Luxor Int'l Airport", "cityKo": "룩소르", "cityEn": "Luxor", "country": "EG", "latitude": 25.6711, "longitude": 32.7066 },
  { "iata": "ASW", "nameKo": "아스완 국제공항", "nameEn": "Aswan Int'l Airport", "cityKo": "아스완", "cityEn": "Aswan", "country": "EG", "latitude": 23.9644, "longitude": 32.8200 },
  { "iata": "ALY", "nameKo": "알렉산드리아 공항", "nameEn": "Alexandria Airport", "cityKo": "알렉산드리아", "cityEn": "Alexandria", "country": "EG", "latitude": 31.1839, "longitude": 29.9489 },
  { "iata": "HBE", "nameKo": "보르그 엘 아랍 공항", "nameEn": "Borg El Arab Airport", "cityKo": "알렉산드리아", "cityEn": "Alexandria", "country": "EG", "latitude": 30.9177, "longitude": 29.6964 },
  { "iata": "MUH", "nameKo": "마르사 알람 국제공항", "nameEn": "Marsa Alam Int'l Airport", "cityKo": "마르사 알람", "cityEn": "Marsa Alam", "country": "EG", "latitude": 25.5571, "longitude": 34.5837 },
  { "iata": "TCP", "nameKo": "타바 국제공항", "nameEn": "Taba Int'l Airport", "cityKo": "타바", "cityEn": "Taba", "country": "EG", "latitude": 29.5878, "longitude": 34.7781 },
  { "iata": "DUR", "nameKo": "킹 샤카 국제공항", "nameEn": "King Shaka Int'l Airport", "cityKo": "더반", "cityEn": "Durban", "country": "ZA", "latitude": -29.6144, "longitude": 31.1197 },
  { "iata": "PLZ", "nameKo": "포트엘리자베스 공항", "nameEn": "Port Elizabeth Airport", "cityKo": "포트엘리자베스", "cityEn": "Port Elizabeth", "country": "ZA", "latitude": -33.9849, "longitude": 25.6173 },
  { "iata": "BFN", "nameKo": "블룸폰테인 공항", "nameEn": "Bram Fischer Int'l Airport", "cityKo": "블룸폰테인", "cityEn": "Bloemfontein", "country": "ZA", "latitude": -29.0927, "longitude": 26.3024 },
  { "iata": "ELS", "nameKo": "이스트런던 공항", "nameEn": "East London Airport", "cityKo": "이스트런던", "cityEn": "East London", "country": "ZA", "latitude": -33.0356, "longitude": 27.8259 },
  { "iata": "GRJ", "nameKo": "조지 공항", "nameEn": "George Airport", "cityKo": "조지", "cityEn": "George", "country": "ZA", "latitude": -34.0056, "longitude": 22.3789 },
  { "iata": "KIM", "nameKo": "킴벌리 공항", "nameEn": "Kimberley Airport", "cityKo": "킴벌리", "cityEn": "Kimberley", "country": "ZA", "latitude": -28.8028, "longitude": 24.7653 },
  { "iata": "NTY", "nameKo": "필란스버그 공항", "nameEn": "Pilanesberg Int'l Airport", "cityKo": "선시티", "cityEn": "Sun City", "country": "ZA", "latitude": -25.3338, "longitude": 27.1733 },
  { "iata": "MBA", "nameKo": "모이 국제공항", "nameEn": "Moi Int'l Airport", "cityKo": "몸바사", "cityEn": "Mombasa", "country": "KE", "latitude": -4.0348, "longitude": 39.5942 },
  { "iata": "KIS", "nameKo": "키수무 공항", "nameEn": "Kisumu Int'l Airport", "cityKo": "키수무", "cityEn": "Kisumu", "country": "KE", "latitude": -0.0861, "longitude": 34.7289 },
  { "iata": "EDL", "nameKo": "엘도레트 국제공항", "nameEn": "Eldoret Int'l Airport", "cityKo": "엘도레트", "cityEn": "Eldoret", "country": "KE", "latitude": 0.4044, "longitude": 35.2389 },
  { "iata": "BJR", "nameKo": "바히르 다르 공항", "nameEn": "Bahir Dar Airport", "cityKo": "바히르 다르", "cityEn": "Bahir Dar", "country": "ET", "latitude": 11.6081, "longitude": 37.3216 },
  { "iata": "MQX", "nameKo": "멜레 공항", "nameEn": "Mekele Airport", "cityKo": "멜레", "cityEn": "Mekele", "country": "ET", "latitude": 13.4674, "longitude": 39.5335 },
  { "iata": "DIR", "nameKo": "디레 다와 공항", "nameEn": "Dire Dawa Airport", "cityKo": "디레 다와", "cityEn": "Dire Dawa", "country": "ET", "latitude": 9.6247, "longitude": 41.8542 },
  { "iata": "EBB", "nameKo": "엔테베 국제공항", "nameEn": "Entebbe Int'l Airport", "cityKo": "엔테베", "cityEn": "Entebbe", "country": "UG", "latitude": 0.0424, "longitude": 32.4435 },
  { "iata": "DAR", "nameKo": "줄리어스 니에레레 국제공항", "nameEn": "Julius Nyerere Int'l", "cityKo": "다레스살람", "cityEn": "Dar es Salaam", "country": "TZ", "latitude": -6.8781, "longitude": 39.2026 },
  { "iata": "JRO", "nameKo": "킬리만자로 공항", "nameEn": "Kilimanjaro Int'l Airport", "cityKo": "킬리만자로", "cityEn": "Kilimanjaro", "country": "TZ", "latitude": -3.4294, "longitude": 37.0745 },
  { "iata": "ZNZ", "nameKo": "잔지바르 공항", "nameEn": "Abeid Amani Karume Int'l", "cityKo": "잔지바르", "cityEn": "Zanzibar", "country": "TZ", "latitude": -6.2220, "longitude": 39.2249 },
  { "iata": "LUN", "nameKo": "케네스 카운다 국제공항", "nameEn": "Kenneth Kaunda Int'l", "cityKo": "루사카", "cityEn": "Lusaka", "country": "ZM", "latitude": -15.3308, "longitude": 28.4526 },
  { "iata": "HRE", "nameKo": "로버트 가브리엘 무가베 국제공항", "nameEn": "Robert Gabriel Mugabe Int'l", "cityKo": "하라레", "cityEn": "Harare", "country": "ZW", "latitude": -17.9318, "longitude": 31.0928 },
  { "iata": "VFA", "nameKo": "빅토리아 폭포 공항", "nameEn": "Victoria Falls Airport", "cityKo": "빅토리아 폭포", "cityEn": "Victoria Falls", "country": "ZW", "latitude": -18.0959, "longitude": 25.8390 },
  { "iata": "WDH", "nameKo": "호세아 쿠타코 국제공항", "nameEn": "Hosea Kutako Int'l Airport", "cityKo": "빈트후크", "cityEn": "Windhoek", "country": "NA", "latitude": -22.4799, "longitude": 17.4709 },
  { "iata": "GBE", "nameKo": "세레체 카마 국제공항", "nameEn": "Sir Seretse Khama Int'l", "cityKo": "하보로네", "cityEn": "Gaborone", "country": "BW", "latitude": -24.5552, "longitude": 25.9182 },
  { "iata": "MPM", "nameKo": "마푸토 국제공항", "nameEn": "Maputo Int'l Airport", "cityKo": "마푸토", "cityEn": "Maputo", "country": "MZ", "latitude": -25.9208, "longitude": 32.5726 },
  { "iata": "TNR", "nameKo": "이바토 국제공항", "nameEn": "Ivato Int'l Airport", "cityKo": "안타나나리보", "cityEn": "Antananarivo", "country": "MG", "latitude": -18.7969, "longitude": 47.4788 },
  { "iata": "RUN", "nameKo": "롤랑 가로 공항", "nameEn": "Roland Garros Airport", "cityKo": "생드니", "cityEn": "Saint-Denis", "country": "RE", "latitude": -20.8871, "longitude": 55.5103 },
  { "iata": "SEZ", "nameKo": "세이셸 국제공항", "nameEn": "Seychelles Int'l Airport", "cityKo": "마에", "cityEn": "Mahe", "country": "SC", "latitude": -4.6743, "longitude": 55.5218 },
  { "iata": "RAK", "nameKo": "메나라 공항", "nameEn": "Ménara Airport", "cityKo": "마라케시", "cityEn": "Marrakech", "country": "MA", "latitude": 31.6069, "longitude": -8.0363 },
  { "iata": "FEZ", "nameKo": "사이스 공항", "nameEn": "Saïs Airport", "cityKo": "페스", "cityEn": "Fes", "country": "MA", "latitude": 33.9273, "longitude": -4.9780 },
  { "iata": "TNG", "nameKo": "이븐 바투타 공항", "nameEn": "Ibn Batouta Airport", "cityKo": "탕헤르", "cityEn": "Tangier", "country": "MA", "latitude": 35.7269, "longitude": -5.9169 },
  { "iata": "AGA", "nameKo": "알 마시라 공항", "nameEn": "Al Massira Airport", "cityKo": "아가디르", "cityEn": "Agadir", "country": "MA", "latitude": 30.3250, "longitude": -9.4131 },
  { "iata": "BLR", "nameKo": "켐페고우다 국제공항", "nameEn": "Kempegowda Int'l Airport", "cityKo": "벵갈루루", "cityEn": "Bangalore", "country": "IN", "latitude": 13.1986, "longitude": 77.7066 },
  { "iata": "MAA", "nameKo": "첸나이 국제공항", "nameEn": "Chennai Int'l Airport", "cityKo": "첸나이", "cityEn": "Chennai", "country": "IN", "latitude": 12.9941, "longitude": 80.1709 },
  { "iata": "CCU", "nameKo": "네타지 수바스 찬드라 보스 국제공항", "nameEn": "Netaji Subhas Chandra Bose", "cityKo": "콜카타", "cityEn": "Kolkata", "country": "IN", "latitude": 22.6547, "longitude": 88.4467 },
  { "iata": "HYD", "nameKo": "라지브 간디 국제공항", "nameEn": "Rajiv Gandhi Int'l Airport", "cityKo": "하이데라바드", "cityEn": "Hyderabad", "country": "IN", "latitude": 17.2403, "longitude": 78.4294 },
  { "iata": "COK", "nameKo": "코친 국제공항", "nameEn": "Cochin Int'l Airport", "cityKo": "코치", "cityEn": "Kochi", "country": "IN", "latitude": 10.1520, "longitude": 76.4019 },
  { "iata": "GOI", "nameKo": "고아 국제공항", "nameEn": "Goa Int'l Airport", "cityKo": "고아", "cityEn": "Goa", "country": "IN", "latitude": 15.3808, "longitude": 73.8314 },
  { "iata": "AMD", "nameKo": "사르다르 발라브바이 파텔 국제공항", "nameEn": "Sardar Vallabhbhai Patel", "cityKo": "아메다바드", "cityEn": "Ahmedabad", "country": "IN", "latitude": 23.0772, "longitude": 72.6347 },
  { "iata": "PNQ", "nameKo": "푸네 공항", "nameEn": "Pune Airport", "cityKo": "푸네", "cityEn": "Pune", "country": "IN", "latitude": 18.5821, "longitude": 73.9197 },
  { "iata": "JAI", "nameKo": "자이푸르 국제공항", "nameEn": "Jaipur Int'l Airport", "cityKo": "자이푸르", "cityEn": "Jaipur", "country": "IN", "latitude": 26.8242, "longitude": 75.8122 },
  { "iata": "LKO", "nameKo": "초드리 차란 싱 국제공항", "nameEn": "Chaudhary Charan Singh", "cityKo": "럭나우", "cityEn": "Lucknow", "country": "IN", "latitude": 26.7606, "longitude": 80.8893 },
  { "iata": "IXC", "nameKo": "찬디가르 국제공항", "nameEn": "Chandigarh Int'l Airport", "cityKo": "찬디가르", "cityEn": "Chandigarh", "country": "IN", "latitude": 30.6735, "longitude": 76.7885 },
  { "iata": "ATQ", "nameKo": "암리차르 국제공항", "nameEn": "Sri Guru Ram Dass Jee", "cityKo": "암리차르", "cityEn": "Amritsar", "country": "IN", "latitude": 31.7096, "longitude": 74.7973 },
  { "iata": "SXR", "nameKo": "스리나가르 공항", "nameEn": "Srinagar Airport", "cityKo": "스리나가르", "cityEn": "Srinagar", "country": "IN", "latitude": 33.9871, "longitude": 74.7742 },
  { "iata": "IXL", "nameKo": "레 쿠크 공항", "nameEn": "Kushok Bakula Rimpochee", "cityKo": "레", "cityEn": "Leh", "country": "IN", "latitude": 34.1359, "longitude": 77.5465 },
  { "iata": "DED", "nameKo": "데라둔 공항", "nameEn": "Dehradun Airport", "cityKo": "데라둔", "cityEn": "Dehradun", "country": "IN", "latitude": 30.1897, "longitude": 78.1803 },
  { "iata": "IXB", "nameKo": "바그도그라 공항", "nameEn": "Bagdogra Airport", "cityKo": "실리구리", "cityEn": "Siliguri", "country": "IN", "latitude": 26.6812, "longitude": 88.3286 },
  { "iata": "GAU", "nameKo": "구와하티 공항", "nameEn": "Lokpriya Gopinath Bordoloi", "cityKo": "구와하티", "cityEn": "Guwahati", "country": "IN", "latitude": 26.1061, "longitude": 91.5859 },
  { "iata": "TRV", "nameKo": "트리반드룸 국제공항", "nameEn": "Trivandrum Int'l Airport", "cityKo": "트리반드룸", "cityEn": "Trivandrum", "country": "IN", "latitude": 8.4821, "longitude": 76.9201 },
  { "iata": "CMB", "nameKo": "반다라나이케 국제공항", "nameEn": "Bandaranaike Int'l Airport", "cityKo": "콜롬보", "cityEn": "Colombo", "country": "LK", "latitude": 7.1808, "longitude": 79.8841 },
  { "iata": "DAC", "nameKo": "하자트 샤잘랄 국제공항", "nameEn": "Hazrat Shahjalal Int'l", "cityKo": "다카", "cityEn": "Dhaka", "country": "BD", "latitude": 23.8433, "longitude": 90.3978 },
  { "iata": "CGP", "nameKo": "샤흐아마나트 국제공항", "nameEn": "Shah Amanat Int'l", "cityKo": "치타공", "cityEn": "Chittagong", "country": "BD", "latitude": 22.2496, "longitude": 91.8133 },
  { "iata": "PBH", "nameKo": "파로 공항", "nameEn": "Paro Airport", "cityKo": "파로", "cityEn": "Paro", "country": "BT", "latitude": 27.4031, "longitude": 89.4246 },
  { "iata": "VTE", "nameKo": "왓타이 국제공항", "nameEn": "Wattay Int'l Airport", "cityKo": "비엔티안", "cityEn": "Vientiane", "country": "LA", "latitude": 17.9883, "longitude": 102.5633 },
  { "iata": "LPQ", "nameKo": "루앙프라방 국제공항", "nameEn": "Luang Prabang Int'l", "cityKo": "루앙프라방", "cityEn": "Luang Prabang", "country": "LA", "latitude": 19.8973, "longitude": 102.1607 },
  { "iata": "PNH", "nameKo": "프놈펜 국제공항", "nameEn": "Phnom Penh Int'l Airport", "cityKo": "프놈펜", "cityEn": "Phnom Penh", "country": "KH", "latitude": 11.5466, "longitude": 104.8441 },
  { "iata": "REP", "nameKo": "시엠립 국제공항", "nameEn": "Siem Reap Int'l Airport", "cityKo": "시엠립", "cityEn": "Siem Reap", "country": "KH", "latitude": 13.4107, "longitude": 103.8130 },
  { "iata": "RGN", "nameKo": "양곤 국제공항", "nameEn": "Yangon Int'l Airport", "cityKo": "양곤", "cityEn": "Yangon", "country": "MM", "latitude": 16.9073, "longitude": 96.1332 },
  { "iata": "MDL", "nameKo": "만달레이 국제공항", "nameEn": "Mandalay Int'l Airport", "cityKo": "만달레이", "cityEn": "Mandalay", "country": "MM", "latitude": 21.7022, "longitude": 95.9778 },
  { "iata": "NYU", "nameKo": "바간 공항", "nameEn": "Bagan Airport", "cityKo": "바간", "cityEn": "Bagan", "country": "MM", "latitude": 21.1787, "longitude": 94.9301 },
  { "iata": "DMK", "nameKo": "돈므앙 국제공항", "nameEn": "Don Mueang Int'l Airport", "cityKo": "방콕", "cityEn": "Bangkok", "country": "TH", "latitude": 13.9126, "longitude": 100.6067 },
  { "iata": "HDY", "nameKo": "하트야이 국제공항", "nameEn": "Hat Yai Int'l Airport", "cityKo": "하트야이", "cityEn": "Hat Yai", "country": "TH", "latitude": 6.9332, "longitude": 100.3928 },
  { "iata": "USM", "nameKo": "사무이 공항", "nameEn": "Samui Airport", "cityKo": "사무이", "cityEn": "Samui", "country": "TH", "latitude": 9.5478, "longitude": 100.0623 },
  { "iata": "KBV", "nameKo": "크라비 공항", "nameEn": "Krabi Airport", "cityKo": "크라비", "cityEn": "Krabi", "country": "TH", "latitude": 8.0991, "longitude": 98.9862 },
  { "iata": "UTP", "nameKo": "우타파오 국제공항", "nameEn": "U-Tapao Int'l Airport", "cityKo": "파타야", "cityEn": "Pattaya", "country": "TH", "latitude": 12.6799, "longitude": 101.0051 },
  { "iata": "CEI", "nameKo": "치앙라이 공항", "nameEn": "Chiang Rai Int'l Airport", "cityKo": "치앙라이", "cityEn": "Chiang Rai", "country": "TH", "latitude": 19.9523, "longitude": 99.8829 },
  { "iata": "UBP", "nameKo": "우본라차타니 공항", "nameEn": "Ubon Ratchathani Airport", "cityKo": "우본라차타니", "cityEn": "Ubon Ratchathani", "country": "TH", "latitude": 15.2513, "longitude": 104.8701 },
  { "iata": "CXR", "nameKo": "깜라인 국제공항", "nameEn": "Cam Ranh Int'l Airport", "cityKo": "냐짱", "cityEn": "Nha Trang", "country": "VN", "latitude": 11.9982, "longitude": 109.2194 },
  { "iata": "PQC", "nameKo": "푸꾸옥 국제공항", "nameEn": "Phu Quoc Int'l Airport", "cityKo": "푸꾸옥", "cityEn": "Phu Quoc", "country": "VN", "latitude": 10.2270, "longitude": 103.9673 },
  { "iata": "HPH", "nameKo": "카트비 국제공항", "nameEn": "Cat Bi Int'l Airport", "cityKo": "하이퐁", "cityEn": "Hai Phong", "country": "VN", "latitude": 20.8194, "longitude": 106.7250 },
  { "iata": "VCA", "nameKo": "껀터 공항", "nameEn": "Can Tho Int'l Airport", "cityKo": "껀터", "cityEn": "Can Tho", "country": "VN", "latitude": 10.0851, "longitude": 105.7119 },
  { "iata": "DLI", "nameKo": "리엔크엉 공항", "nameEn": "Lien Khuong Airport", "cityKo": "달랏", "cityEn": "Da Lat", "country": "VN", "latitude": 11.7500, "longitude": 108.3670 },
  { "iata": "HUI", "nameKo": "푸바이 국제공항", "nameEn": "Phu Bai Int'l Airport", "cityKo": "후에", "cityEn": "Hue", "country": "VN", "latitude": 16.4015, "longitude": 107.7026 },
  { "iata": "DVO", "nameKo": "프란시스코 방고이 국제공항", "nameEn": "Francisco Bangoy Int'l", "cityKo": "다바오", "cityEn": "Davao", "country": "PH", "latitude": 7.1255, "longitude": 125.6458 },
  { "iata": "ILO", "nameKo": "일로일로 국제공항", "nameEn": "Iloilo Int'l Airport", "cityKo": "일로일로", "cityEn": "Iloilo", "country": "PH", "latitude": 10.8330, "longitude": 122.4933 },
  { "iata": "CRK", "nameKo": "클락 국제공항", "nameEn": "Clark Int'l Airport", "cityKo": "클락", "cityEn": "Clark", "country": "PH", "latitude": 15.1859, "longitude": 120.5603 },
  { "iata": "PEN", "nameKo": "페낭 국제공항", "nameEn": "Penang Int'l Airport", "cityKo": "페낭", "cityEn": "Penang", "country": "MY", "latitude": 5.2971, "longitude": 100.2770 },
  { "iata": "JHB", "nameKo": "센타이 국제공항", "nameEn": "Senai Int'l Airport", "cityKo": "조호르바루", "cityEn": "Johor Bahru", "country": "MY", "latitude": 1.6411, "longitude": 103.6697 },
  { "iata": "KCH", "nameKo": "쿠칭 국제공항", "nameEn": "Kuching Int'l Airport", "cityKo": "쿠칭", "cityEn": "Kuching", "country": "MY", "latitude": 1.4847, "longitude": 110.3469 },
  { "iata": "BKI", "nameKo": "코타키나발루 국제공항", "nameEn": "Kota Kinabalu Int'l", "cityKo": "코타키나발루", "cityEn": "Kota Kinabalu", "country": "MY", "latitude": 5.9372, "longitude": 116.0515 },
  { "iata": "MYY", "nameKo": "미리 공항", "nameEn": "Miri Airport", "cityKo": "미리", "cityEn": "Miri", "country": "MY", "latitude": 4.3220, "longitude": 113.9870 },
  { "iata": "SBW", "nameKo": "시부 공항", "nameEn": "Sibu Airport", "cityKo": "시부", "cityEn": "Sibu", "country": "MY", "latitude": 2.2616, "longitude": 111.9850 },
  { "iata": "TWU", "nameKo": "타와우 공항", "nameEn": "Tawau Airport", "cityKo": "타와우", "cityEn": "Tawau", "country": "MY", "latitude": 4.3200, "longitude": 118.1280 }
]
